{"type":"FeatureCollection","features":[
{"type":"Feature","geometry":{"type":"Point","coordinates":[-73.8012448,42.7596818]},"properties":{"barrier":"gate"}},
{"type":"Feature","geometry":{"type":"Point","coordinates":[-73.4639924,44.6605963]},"properties":{"access":"private","barrier":"gate"}},
{"type":"Feature","geometry":{"type":"Point","coordinates":[-78.7507926,43.3084715]},"properties":{"addr:state":"NY","aeroway":"aerodrome","ele":"95","gnis:feature_id":"973682","name":"Palmer Airport"}},
{"type":"Feature","geometry":{"type":"Point","coordinates":[-74.9770631,43.7250901]},"properties":{"addr:city":"Old Forge","addr:state":"NY","aeroway":"aerodrome","description":"NK26","ele":"532","gnis:feature_id":"972012","name":"Old Forge Airport","wikidata":"Q7084016","wikipedia":"en:Old Forge Airport"}},
{"type":"Feature","geometry":{"type":"Point","coordinates":[-73.8552778,42.0961111]},"properties":{"addr:state":"NY","aeroway":"aerodrome","ele":"42","gnis:feature_id":"975790","name":"SOP Airport"}},
{"type":"Feature","geometry":{"type":"Point","coordinates":[-74.428218,43.9689508]},"properties":{"addr:state":"NY","aeroway":"aerodrome","ele":"505","gnis:feature_id":"975795","name":"Long Lake-Sagamore Marina and Seaplane Base","wikidata":"Q35275689"}},
{"type":"Feature","geometry":{"type":"Point","coordinates":[-74.4231559,43.974543]},"properties":{"addr:state":"NY","aeroway":"aerodrome","ele":"497","gnis:feature_id":"975794","name":"Long Lake-Helms Seaplane Base","wikidata":"Q14706825"}},
{"type":"Feature","geometry":{"type":"Point","coordinates":[-76.2143742,42.5925704]},"properties":{"addr:state":"NY","aeroway":"aerodrome","ele":"357","gnis:feature_id":"975785","iata":"CTX","name":"Cortland County Airport-Chase Field","wikidata":"Q1655482"}},
{"type":"Feature","geometry":{"type":"Point","coordinates":[-74.4001001,41.570114]},"properties":{"addr:state":"NY","aeroway":"aerodrome","ele":"124","gnis:feature_id":"975781","name":"Sha-Wan-Ga Valley Airport"}},
{"type":"Feature","geometry":{"type":"Point","coordinates":[-73.7377507,42.508914]},"properties":{"addr:state":"NY","aeroway":"aerodrome","ele":"49","gnis:feature_id":"973831","name":"Castleton-on-Hudson Airport"}},
{"type":"Feature","geometry":{"type":"Point","coordinates":[-73.917789,42.7539305]},"properties":{"addr:state":"NY","aeroway":"aerodrome","ele":"103","faa":"NK43","gnis:feature_id":"977881","name":"Jerry Phibbs Airport","wikidata":"Q35268620"}},
{"type":"Feature","geometry":{"type":"Point","coordinates":[-78.2182037,43.2960116]},"properties":{"addr:state":"NY","aeroway":"aerodrome","ele":"116","gnis:feature_id":"977882","name":"Gaines Valley Aviation Airport","wikidata":"Q35259117"}},
{"type":"Feature","geometry":{"type":"Point","coordinates":[-78.2703462,43.1740587]},"properties":{"addr:state":"NY","aeroway":"aerodrome","ele":"201","gnis:feature_id":"977883","name":"Pine Hill Airport","wikidata":"Q7195198"}},
{"type":"Feature","geometry":{"type":"Point","coordinates":[-77.210809,42.1214626]},"properties":{"addr:state":"NY","aeroway":"aerodrome","ele":"377","gnis:feature_id":"977877","name":"Towner Farm Airport"}},
{"type":"Feature","geometry":{"type":"Point","coordinates":[-73.8445717,42.2839753]},"properties":{"addr:state":"NY","aeroway":"aerodrome","ele":"42","gnis:feature_id":"977899","name":"Athens Airport","wikidata":"Q34954660"}},
{"type":"Feature","geometry":{"type":"Point","coordinates":[-78.348905,42.5856175]},"properties":{"addr:state":"NY","aeroway":"aerodrome","ele":"570","gnis:feature_id":"977895","name":"East Arcade Airport"}},
{"type":"Feature","geometry":{"type":"Point","coordinates":[-74.0811332,42.9575739]},"properties":{"addr:state":"NY","aeroway":"aerodrome","alt_name":"Snow Field Airport (NY58)","ele":"234","faa":"NY58","fixme":"might be closed","gnis:feature_id":"977889","name":"Snow Field"}},
{"type":"Feature","geometry":{"type":"Point","coordinates":[-74.7756414,42.0385655]},"properties":{"addr:state":"NY","aeroway":"aerodrome","ele":"682","gnis:feature_id":"977891","name":"Del Savio Airport","wikidata":"Q35251753"}},
{"type":"Feature","geometry":{"type":"Point","coordinates":[-78.1484735,43.2698632]},"properties":{"addr:state":"NY","aeroway":"aerodrome","ele":"144","faa":"NK31","gnis:feature_id":"977884","name":"Dawn Patrol Aviation Airport","wikidata":"Q34958362"}},
{"type":"Feature","geometry":{"type":"Point","coordinates":[-75.8384149,42.190171]},"properties":{"addr:state":"NY","aeroway":"aerodrome","ele":"287","gnis:feature_id":"977915","name":"Chenango Bridge Airport","wikidata":"Q34957788"}},
{"type":"Feature","geometry":{"type":"Point","coordinates":[-78.3400158,42.5967285]},"properties":{"addr:state":"NY","aeroway":"aerodrome","alt_name":"Keysa Airport (NY79)","ele":"493","faa":"NY79","gnis:feature_id":"977916","name":"Keysa Airport","website":"https://adip.faa.gov/agis/public/#/airportData/NY79"}},
{"type":"Feature","geometry":{"type":"Point","coordinates":[-77.9586228,43.0667275]},"properties":{"addr:state":"NY","aeroway":"aerodrome","ele":"207","gnis:feature_id":"977913","name":"Ely Air Park"}},
{"type":"Feature","geometry":{"type":"Point","coordinates":[-73.5587487,44.7625408]},"properties":{"addr:state":"NY","aeroway":"aerodrome","ele":"174","gnis:feature_id":"977911","name":"Vasile Field","wikidata":"Q61676059"}},
{"type":"Feature","geometry":{"type":"Point","coordinates":[-77.3403491,42.2796981]},"properties":{"addr:state":"NY","aeroway":"aerodrome","ele":"520","gnis:feature_id":"977907","name":"Jolamtra Landing Area"}},
{"type":"Feature","geometry":{"type":"Point","coordinates":[-76.6630021,42.7445148]},"properties":{"addr:state":"NY","aeroway":"aerodrome","ele":"251","gnis:feature_id":"977901","name":"Match Mate Airport"}},
{"type":"Feature","geometry":{"type":"Point","coordinates":[-75.4857326,43.3872918]},"properties":{"addr:state":"NY","aeroway":"aerodrome","ele":"365","gnis:feature_id":"977902","name":"Valenty Mierek Airport"}},
{"type":"Feature","geometry":{"type":"Point","coordinates":[-78.6922276,43.0685087]},"properties":{"addr:state":"NY","aeroway":"aerodrome","ele":"178","gnis:feature_id":"977930","name":"Clarence Aerodrome","wikidata":"Q34957929"}},
{"type":"Feature","geometry":{"type":"Point","coordinates":[-77.9133451,43.1811716]},"properties":{"addr:state":"NY","aeroway":"aerodrome","ele":"203","gnis:feature_id":"977924","name":"Ledgedale Airpark","ref":"7G0","wikidata":"Q10858095"}},
{"type":"Feature","geometry":{"type":"Point","coordinates":[-74.1241722,43.1285518]},"properties":{"addr:state":"NY","aeroway":"aerodrome","ele":"279","gnis:feature_id":"977923","name":"The Farm Airport"}},
{"type":"Feature","geometry":{"type":"Point","coordinates":[-74.1163294,43.1394873]},"properties":{"addr:state":"NY","aeroway":"aerodrome","ele":"275","gnis:feature_id":"977922","name":"Circle K Ranch Airport","wikidata":"Q34957859"}},
{"type":"Feature","geometry":{"type":"Point","coordinates":[-74.1545754,43.102851]},"properties":{"addr:state":"NY","aeroway":"aerodrome","ele":"253","gnis:feature_id":"977921","name":"The Pines Airport"}},
{"type":"Feature","geometry":{"type":"Point","coordinates":[-75.2529601,43.468194]},"properties":{"addr:state":"NY","aeroway":"aerodrome","ele":"355","gnis:feature_id":"977919","name":"Boonville Incorporated Airport"}},
{"type":"Feature","geometry":{"type":"Point","coordinates":[-74.4958144,43.8399851]},"properties":{"addr:state":"NY","aeroway":"aerodrome","ele":"577","gnis:feature_id":"977917","name":"Eagle Nest Seaplane Base","wikidata":"Q35253722"}},
{"type":"Feature","geometry":{"type":"Point","coordinates":[-76.9207949,42.0850744]},"properties":{"addr:state":"NY","aeroway":"aerodrome","ele":"457","gnis:feature_id":"978005","name":"Connelly Field"}},
{"type":"Feature","geometry":{"type":"Point","coordinates":[-76.8324574,42.0417408]},"properties":{"addr:state":"NY","aeroway":"aerodrome","ele":"343","gnis:feature_id":"978004","name":"Dalrymples Airport"}},
{"type":"Feature","geometry":{"type":"Point","coordinates":[-73.6152963,42.578021]},"properties":{"addr:state":"NY","aeroway":"aerodrome","alt_name":"Alexander Farm Airport (NY82)","ele":"154","faa":"NY82","gnis:feature_id":"977999","name":"Alexander Farm Airport","wikidata":"Q34954586"}},
{"type":"Feature","geometry":{"type":"Point","coordinates":[-77.1813682,43.0983968]},"properties":{"addr:state":"NY","aeroway":"aerodrome","ele":"159","gnis:feature_id":"977998","name":"Oak Ridge Airport"}},
{"type":"Feature","geometry":{"type":"Point","coordinates":[-76.4613254,43.043955]},"properties":{"addr:state":"NY","aeroway":"aerodrome","ele":"173","gnis:feature_id":"978001","name":"Walls Airport"}},
{"type":"Feature","geometry":{"type":"Point","coordinates":[-73.3490164,44.3000513]},"properties":{"addr:state":"NY","aeroway":"aerodrome","ele":"29","faa:lid":"NY83","gnis:feature_id":"978011","name":"Essex Boatworks Seaplane Base","wikidata":"Q34959190"}},
{"type":"Feature","geometry":{"type":"Point","coordinates":[-74.3251315,42.7814636]},"properties":{"addr:state":"NY","aeroway":"aerodrome","ele":"380","gnis:feature_id":"978010","name":"Hogan Airport"}},
{"type":"Feature","geometry":{"type":"Point","coordinates":[-73.3796507,44.2785132]},"properties":{"addr:state":"NY","aeroway":"aerodrome","ele":"92","faa":"NY84","gnis:feature_id":"978012","name":"Richter Aero Airport","wikidata":"Q34962346"}},
{"type":"Feature","geometry":{"type":"Point","coordinates":[-74.2538513,42.960009]},"properties":{"addr:state":"NY","aeroway":"aerodrome","ele":"128","gnis:feature_id":"978019","name":"Amsterdam Airfield","wikidata":"Q61676185"}},
{"type":"Feature","geometry":{"type":"Point","coordinates":[-74.6828252,42.9632844]},"properties":{"addr:state":"NY","aeroway":"aerodrome","ele":"222","gnis:feature_id":"978020","name":"Nellis Field","wikidata":"Q61676189"}},
{"type":"Feature","geometry":{"type":"Point","coordinates":[-74.6268449,42.9232958]},"properties":{"addr:state":"NY","aeroway":"aerodrome","ele":"163","gnis:feature_id":"978021","iata":"3NY4","name":"Di Stefano Airpark","phone":"518-993-2370","wikidata":"Q35252340"}},
{"type":"Feature","geometry":{"type":"Point","coordinates":[-75.313225,43.2495141]},"properties":{"addr:state":"NY","aeroway":"aerodrome","ele":"268","gnis:feature_id":"978017","name":"Hickory Hollow Airport"}},
{"type":"Feature","geometry":{"type":"Point","coordinates":[-74.1990188,42.6972979]},"properties":{"addr:state":"NY","aeroway":"aerodrome","ele":"359","gnis:feature_id":"978026","name":"Flying K Ranch Airport"}},
{"type":"Feature","geometry":{"type":"Point","coordinates":[-74.148271,41.6753331]},"properties":{"addr:state":"NY","aeroway":"aerodrome","ele":"98","faa":"5NY5","gnis:feature_id":"978029","name":"Gardiner Airport","wikidata":"Q35259267"}},
{"type":"Feature","geometry":{"type":"Point","coordinates":[-74.7293128,42.9756274]},"properties":{"addr:state":"NY","aeroway":"aerodrome","ele":"209","gnis:feature_id":"978022","name":"O'Riley Airport","wikidata":"Q35285178"}},
{"type":"Feature","geometry":{"type":"Point","coordinates":[-74.6907,42.8834063]},"properties":{"addr:state":"NY","aeroway":"aerodrome","ele":"293","faa":"NY88","gnis:feature_id":"978023","name":"Hickory Acres Airport","wikidata":"Q35264597"}},
{"type":"Feature","geometry":{"type":"Point","coordinates":[-74.0654124,42.36425]},"properties":{"addr:state":"NY","aeroway":"aerodrome","ele":"131","faa":"1I5","gnis:feature_id":"978024","name":"Freehold Airport","wikidata":"Q5500905"}},
{"type":"Feature","geometry":{"type":"Point","coordinates":[-73.6365075,42.3500852]},"properties":{"addr:state":"NY","aeroway":"aerodrome","ele":"110","gnis:feature_id":"978035","name":"Kline Kill Airport"}},
{"type":"Feature","geometry":{"type":"Point","coordinates":[-77.8471737,42.7970775]},"properties":{"addr:state":"NY","aeroway":"aerodrome","ele":"171","gnis:feature_id":"978032","name":"Geneseo Airport"}},
{"type":"Feature","geometry":{"type":"Point","coordinates":[-78.5617842,43.181859]},"properties":{"addr:state":"NY","aeroway":"aerodrome","ele":"189","gnis:feature_id":"978031","name":"Royalton Airport","wikidata":"Q10849646"}},
{"type":"Feature","geometry":{"type":"Point","coordinates":[-78.9500014,42.5015888]},"properties":{"addr:state":"NY","aeroway":"aerodrome","ele":"253","gnis:feature_id":"978045","name":"Gowanda Airport"}},
{"type":"Feature","geometry":{"type":"Point","coordinates":[-75.4051805,44.3664249]},"properties":{"addr:state":"NY","aeroway":"aerodrome","ele":"145","gnis:feature_id":"978044","name":"Hendricks Field"}},
{"type":"Feature","geometry":{"type":"Point","coordinates":[-74.4093221,41.327872]},"properties":{"addr:state":"NY","aeroway":"aerodrome","ele":"122","gnis:feature_id":"978041","name":"Big Island Airport"}},
{"type":"Feature","geometry":{"type":"Point","coordinates":[-77.2005535,42.8128571]},"properties":{"addr:state":"NY","aeroway":"aerodrome","ele":"329","gnis:feature_id":"978039","name":"Midlakes Airport"}},
{"type":"Feature","geometry":{"type":"Point","coordinates":[-73.6292834,43.1922961]},"properties":{"addr:state":"NY","aeroway":"aerodrome","ele":"55","gnis:feature_id":"978038","name":"Shaw Field"}},
{"type":"Feature","geometry":{"type":"Point","coordinates":[-77.7919446,42.6958972]},"properties":{"addr:state":"NY","aeroway":"aerodrome","ele":"176","gnis:feature_id":"978051","name":"Seven Gullies Airport"}},
{"type":"Feature","geometry":{"type":"Point","coordinates":[-74.0064825,42.4190613]},"properties":{"addr:state":"NY","aeroway":"aerodrome","ele":"242","gnis:feature_id":"978050","name":"Greenville-Rainbow Airport","wikidata":"Q35261412"}},
{"type":"Feature","geometry":{"type":"Point","coordinates":[-78.6442049,42.2071145]},"properties":{"addr:state":"NY","aeroway":"aerodrome","ele":"443","gnis:feature_id":"978047","name":"Great Valley Airport","wikidata":"Q3913400","wikipedia":"en:Great Valley Airport"}},
{"type":"Feature","geometry":{"type":"Point","coordinates":[-74.8931724,42.9819248]},"properties":{"addr:state":"NY","aeroway":"aerodrome","ele":"406","gnis:feature_id":"978063","name":"Sky-Ranch Airport"}},
{"type":"Feature","geometry":{"type":"Point","coordinates":[-77.5727731,42.8145085]},"properties":{"addr:state":"NY","aeroway":"aerodrome","ele":"304","gnis:feature_id":"978060","name":"Old Fort Farm Airport"}},
{"type":"Feature","geometry":{"type":"Point","coordinates":[-75.5610132,42.8436801]},"properties":{"addr:state":"NY","aeroway":"aerodrome","ele":"344","gnis:feature_id":"978056","iata":"VGC","icao":"KVGC","name":"Elisha Payne Airport","wikidata":"Q3885976"}},
{"type":"Feature","geometry":{"type":"Point","coordinates":[-75.3156014,42.0515548]},"properties":{"addr:state":"NY","aeroway":"aerodrome","ele":"455","gnis:feature_id":"978057","name":"White Birch Field"}},
{"type":"Feature","geometry":{"type":"Point","coordinates":[-73.4281684,42.9056334]},"properties":{"addr:state":"NY","aeroway":"aerodrome","ele":"157","gnis:feature_id":"977936","name":"Moseleys Airport"}},
{"type":"Feature","geometry":{"type":"Point","coordinates":[-76.8199559,42.4056285]},"properties":{"addr:state":"NY","aeroway":"aerodrome","ele":"453","gnis:feature_id":"977935","name":"Eagle Ridge Airport","wikidata":"Q35253732"}},
{"type":"Feature","geometry":{"type":"Point","coordinates":[-76.2873121,43.0850848]},"properties":{"addr:state":"NY","aeroway":"aerodrome","ele":"124","faa":"NY25","gnis:feature_id":"977939","name":"Camillus Airport","operator":"Camillus Airport, Inc.","operator:type":"business","wikidata":"Q34957223"}},
{"type":"Feature","geometry":{"type":"Point","coordinates":[-74.4987491,42.8700737]},"properties":{"addr:state":"NY","aeroway":"aerodrome","ele":"225","gnis:feature_id":"977942","name":"Russell Airport","wikidata":"Q34962591"}},
{"type":"Feature","geometry":{"type":"Point","coordinates":[-77.5602043,42.7524096]},"properties":{"addr:state":"NY","aeroway":"aerodrome","ele":"492","gnis:feature_id":"977941","name":"Coye Field"}},
{"type":"Feature","geometry":{"type":"Point","coordinates":[-74.5304166,42.847296]},"properties":{"addr:state":"NY","aeroway":"aerodrome","ele":"239","gnis:feature_id":"977943","name":"Canajoharie Airport","wikidata":"Q34957286"}},
{"type":"Feature","geometry":{"type":"Point","coordinates":[-77.2388015,42.9186354]},"properties":{"addr:state":"NY","aeroway":"aerodrome","ele":"220","gnis:feature_id":"977945","name":"Hopewell Airpark"}},
{"type":"Feature","geometry":{"type":"Point","coordinates":[-77.4649849,42.2961826]},"properties":{"addr:state":"NY","aeroway":"aerodrome","ele":"525","gnis:feature_id":"977947","name":"Gaskins Hilltop Airport"}},
{"type":"Feature","geometry":{"type":"Point","coordinates":[-75.605142,44.0010573]},"properties":{"addr:state":"NY","aeroway":"aerodrome","ele":"238","gnis:feature_id":"977950","name":"Countrymans Landing Strip"}},
{"type":"Feature","geometry":{"type":"Point","coordinates":[-78.7905879,42.3339515]},"properties":{"addr:state":"NY","aeroway":"aerodrome","ele":"514","gnis:feature_id":"977951","name":"Berdick Field"}},
{"type":"Feature","geometry":{"type":"Point","coordinates":[-78.2366788,42.4500638]},"properties":{"addr:state":"NY","aeroway":"aerodrome","ele":"587","gnis:feature_id":"977952","name":"Plane Haven Airport","wikidata":"Q35289696"}},
{"type":"Feature","geometry":{"type":"Point","coordinates":[-76.21965,43.3617358]},"properties":{"addr:state":"NY","aeroway":"aerodrome","ele":"137","gnis:feature_id":"977953","name":"Spring Brook Airport"}},
{"type":"Feature","geometry":{"type":"Point","coordinates":[-74.0203156,42.979738]},"properties":{"addr:state":"NY","aeroway":"aerodrome","ele":"228","gnis:feature_id":"977954","name":"Westwind Farm Airport","wikidata":"Q35319222"}},
{"type":"Feature","geometry":{"type":"Point","coordinates":[-76.1283087,44.0417002]},"properties":{"addr:state":"NY","aeroway":"aerodrome","ele":"81","gnis:feature_id":"977955","name":"Chaumont Bay Airport"}},
{"type":"Feature","geometry":{"type":"Point","coordinates":[-74.3130722,41.3466805]},"properties":{"addr:state":"NY","aeroway":"aerodrome","ele":"149","gnis:feature_id":"977956","name":"Orange Poultry Farm Airport"}},
{"type":"Feature","geometry":{"type":"Point","coordinates":[-75.844995,43.0290564]},"properties":{"addr:state":"NY","aeroway":"aerodrome","ele":"226","gnis:feature_id":"977958","name":"Luther Airport","wikidata":"Q10853210"}},
{"type":"Feature","geometry":{"type":"Point","coordinates":[-75.8290793,43.0094896]},"properties":{"addr:state":"NY","aeroway":"aerodrome","ele":"317","gnis:feature_id":"977959","name":"Lakeview Airport","wikidata":"Q35273023"}},
{"type":"Feature","geometry":{"type":"Point","coordinates":[-78.6077483,43.063418]},"properties":{"addr:state":"NY","aeroway":"aerodrome","ele":"176","gnis:feature_id":"977960","name":"Merkle Airport","wikidata":"Q34961351"}},
{"type":"Feature","geometry":{"type":"Point","coordinates":[-78.6618092,43.0587213]},"properties":{"addr:state":"NY","aeroway":"aerodrome","ele":"178","gnis:feature_id":"977961","name":"Potoczak Airport","wikidata":"Q35290402"}},
{"type":"Feature","geometry":{"type":"Point","coordinates":[-77.994205,43.2595748]},"properties":{"addr:state":"NY","aeroway":"aerodrome","ele":"121","gnis:feature_id":"977962","name":"Para-Tech Airport"}},
{"type":"Feature","geometry":{"type":"Point","coordinates":[-73.5906766,42.1431453]},"properties":{"addr:state":"NY","aeroway":"aerodrome","ele":"218","gnis:feature_id":"977971","name":"Copake Lake Seaplane Base"}},
{"type":"Feature","geometry":{"type":"Point","coordinates":[-74.8904323,42.6292425]},"properties":{"addr:state":"NY","aeroway":"aerodrome","ele":"375","gnis:feature_id":"977970","iata":"COP","name":"Cooperstown-Westville Airport"}},
{"type":"Feature","geometry":{"type":"Point","coordinates":[-76.0143639,43.3159026]},"properties":{"addr:state":"NY","aeroway":"aerodrome","ele":"146","gnis:feature_id":"977969","name":"Engineers Airport"}},
{"type":"Feature","geometry":{"type":"Point","coordinates":[-78.2114016,42.2359007]},"properties":{"addr:state":"NY","aeroway":"aerodrome","ele":"640","gnis:feature_id":"977976","name":"Dew Airpark","wikidata":"Q35252308"}},
{"type":"Feature","geometry":{"type":"Point","coordinates":[-73.8726279,42.3236964]},"properties":{"addr:state":"NY","aeroway":"aerodrome","ele":"106","gnis:feature_id":"977975","name":"Deer Run Airport","wikidata":"Q35251731"}},
{"type":"Feature","geometry":{"type":"Point","coordinates":[-74.780382,42.486744]},"properties":{"addr:state":"NY","aeroway":"aerodrome","alt_name":"Mountain Top Airport (NY02)","ele":"586","gnis:feature_id":"977980","name":"Mountain Top Airport","website":"https://www.airport-data.com/airport/NY02","wikidata":"Q35282413"}},
{"type":"Feature","geometry":{"type":"Point","coordinates":[-77.7124956,42.5708997]},"properties":{"addr:state":"NY","aeroway":"aerodrome","ele":"196","gnis:feature_id":"977979","iata":"DSV","name":"Dansville Municipal Airport"}},
{"type":"Feature","geometry":{"type":"Point","coordinates":[-76.5160765,42.3547614]},"properties":{"addr:state":"NY","aeroway":"aerodrome","ele":"454","gnis:feature_id":"977978","name":"Tom N' Jerry Airport"}},
{"type":"Feature","geometry":{"type":"Point","coordinates":[-73.7715106,42.5595248]},"properties":{"addr:state":"NY","aeroway":"aerodrome","ele":"14","gnis:feature_id":"977984","name":"Cross Farm Airport","wikidata":"Q34958294"}},
{"type":"Feature","geometry":{"type":"Point","coordinates":[-75.0329373,44.3021063]},"properties":{"addr:state":"NY","aeroway":"aerodrome","ele":"375","gnis:feature_id":"977982","name":"Clifton Hunt Club Airport"}},
{"type":"Feature","geometry":{"type":"Point","coordinates":[-74.1344799,42.7601605]},"properties":{"addr:city":"Duanesburg","addr:housenumber":"5051","addr:postcode":"12056","addr:state":"NY","addr:street":"Western Turnpike","aeroway":"aerodrome","ele":"216","gnis:feature_id":"977988","name":"Duanesburg Airport","nysgissam:nysaddresspointid":"SCHE046215","wikidata":"Q5310411","wikipedia":"en:Duanesburg Airport"}},
{"type":"Feature","geometry":{"type":"Point","coordinates":[-79.4369914,42.2203356]},"properties":{"addr:state":"NY","aeroway":"aerodrome","ele":"401","gnis:feature_id":"977985","name":"Walker Seaplane Base"}},
{"type":"Feature","geometry":{"type":"Point","coordinates":[-74.7447271,43.1180053]},"properties":{"addr:city":"Dolgeville","addr:housenumber":"139","addr:postcode":"13329","addr:state":"NY","addr:street":"Lottville Road","aeroway":"aerodrome","ele":"287","gnis:feature_id":"977986","iata":"1F6","name":"Dolgeville Airport"}},
{"type":"Feature","geometry":{"type":"Point","coordinates":[-74.0642968,42.6111885]},"properties":{"addr:state":"NY","aeroway":"aerodrome","alt_name":"Heldeberg Airstrip Airport (NY81)","ele":"363","faa":"NY81","gnis:feature_id":"977993","name":"Heldeberg Airstrip","wikidata":"Q35263917"}},
{"type":"Feature","geometry":{"type":"Point","coordinates":[-72.7489571,40.8258319]},"properties":{"addr:state":"NY","aeroway":"aerodrome","closest_town":"East Moriches, New York","ele":"13","faa":"1N2","gnis:feature_id":"977996","name":"Spadaro Airport","name:en":"Spadaro Airport","name_1":"Lufker Airport","operator":"Bart Spadaro","ref":"1N2","source":"wikipedia","type":"public","wikidata":"Q7572766","wikipedia":"en:Spadaro Airport"}},
{"type":"Feature","geometry":{"type":"Point","coordinates":[-77.0579803,42.2910068]},"properties":{"addr:state":"NY","aeroway":"aerodrome","ele":"366","faa":"NK89","gnis:feature_id":"978155","name":"Ultralight Flight Farm","wikidata":"Q35314108"}},
{"type":"Feature","geometry":{"type":"Point","coordinates":[-71.9392363,41.0717684]},"properties":{"addr:state":"NY","aeroway":"aerodrome","ele":"0","gnis:feature_id":"978153","name":"Montauk Seaplane Base","wikidata":"Q35281519"}},
{"type":"Feature","geometry":{"type":"Point","coordinates":[-79.4814357,42.2681136]},"properties":{"addr:city":"Mayville","addr:postcode":"14757","addr:state":"NY","aeroway":"aerodrome","ele":"406","faa":"D79","gnis:feature_id":"978140","name":"Dart Airport"}},
{"type":"Feature","geometry":{"type":"Point","coordinates":[-73.6692093,42.8932983]},"properties":{"addr:state":"NY","aeroway":"aerodrome","ele":"58","gnis:feature_id":"978141","name":"Burrello-Mechanicville Airport","wikidata":"Q61676295"}},
{"type":"Feature","geometry":{"type":"Point","coordinates":[-79.4436576,42.2839469]},"properties":{"addr:state":"NY","aeroway":"aerodrome","ele":"503","gnis:feature_id":"978139","name":"Chautauqua Lake Airpark"}},
{"type":"Feature","geometry":{"type":"Point","coordinates":[-76.0882602,42.4384056]},"properties":{"addr:state":"NY","aeroway":"aerodrome","ele":"390","gnis:feature_id":"978132","name":"Lapeer Flyer Airport","wikidata":"Q34960662"}},
{"type":"Feature","geometry":{"type":"Point","coordinates":[-76.3532216,43.0109875]},"properties":{"addr:state":"NY","aeroway":"aerodrome","ele":"249","gnis:feature_id":"978133","name":"Marcellus Airport"}},
{"type":"Feature","geometry":{"type":"Point","coordinates":[-75.9379722,43.0722893]},"properties":{"addr:state":"NY","aeroway":"aerodrome","ele":"154","gnis:feature_id":"978131","name":"Poolsbrook Aerodrome"}},
{"type":"Feature","geometry":{"type":"Point","coordinates":[-73.7642993,41.3820381]},"properties":{"addr:state":"NY","aeroway":"aerodrome","ele":"208","gnis:feature_id":"978128","name":"Mahopac Airport","wikidata":"Q35277127"}},
{"type":"Feature","geometry":{"type":"Point","coordinates":[-75.357394,43.3417361]},"properties":{"addr:state":"NY","aeroway":"aerodrome","ele":"214","gnis:feature_id":"978193","name":"Flying Acres Airport"}},
{"type":"Feature","geometry":{"type":"Point","coordinates":[-73.978725,43.6940487]},"properties":{"addr:state":"NY","aeroway":"aerodrome","ele":"299","gnis:feature_id":"978188","name":"Bennetts Airport","wikidata":"Q34955750"}},
{"type":"Feature","geometry":{"type":"Point","coordinates":[-73.9729007,40.7351534]},"properties":{"addr:state":"NY","aeroway":"aerodrome","ele":"0","gnis:feature_id":"978177","iata":"NYS","name":"New York Skyports Incorporated Seaplane Base","wikidata":"Q10860385"}},
{"type":"Feature","geometry":{"type":"Point","coordinates":[-78.7619811,43.2561734]},"properties":{"addr:state":"NY","aeroway":"aerodrome","ele":"108","gnis:feature_id":"978168","name":"Hollands International Field"}},
{"type":"Feature","geometry":{"type":"Point","coordinates":[-76.310209,42.8103458]},"properties":{"addr:state":"NY","aeroway":"aerodrome","ele":"263","gnis:feature_id":"978169","name":"Maus Marineland Seaplane Base"}},
{"type":"Feature","geometry":{"type":"Point","coordinates":[-74.1172269,41.7528537]},"properties":{"addr:city":"New Paltz","addr:housenumber":"201","addr:postcode":"12561","addr:state":"NY","addr:street":"Airport Lane","aerodrome:type":"private","aeroway":"aerodrome","contact:facebook":"https://www.facebook.com/p/Stanton-Airport-100064786206024/","ele":"91","gnis:feature_id":"978170","name":"Stanton Airport (NY35)","nysgissam:nysaddresspointid":"ULST016769","start_date":"1961","wikidata":"Q35306111"}},
{"type":"Feature","geometry":{"type":"Point","coordinates":[-75.429069,43.8402011]},"properties":{"addr:state":"NY","aeroway":"aerodrome","ele":"239","gnis:feature_id":"978165","name":"Duflo Airport"}},
{"type":"Feature","geometry":{"type":"Point","coordinates":[-79.3136832,42.0825552]},"properties":{"addr:state":"NY","aeroway":"aerodrome","ele":"493","gnis:feature_id":"978091","icao":"55NY","name":"Ridgeview Airport","wikidata":"Q61676253"}},
{"type":"Feature","geometry":{"type":"Point","coordinates":[-79.3959668,42.0807855]},"properties":{"addr:state":"NY","aerodrome:type":"civil","aeroway":"aerodrome","alt_name":"Goose Creek Airport","ele":"407","gnis:feature_id":"978090","name":"Fairbank Farms Airport","phone":"+1-716-782-2000"}},
{"type":"Feature","geometry":{"type":"Point","coordinates":[-76.5970849,42.4490206]},"properties":{"addr:state":"NY","aeroway":"aerodrome","alt_name":"Grund Field Airport (NY55)","ele":"442","faa":"NY55","gnis:feature_id":"978088","name":"Grund Field"}},
{"type":"Feature","geometry":{"type":"Point","coordinates":[-73.5073368,42.8936887]},"properties":{"addr:state":"NY","aeroway":"aerodrome","ele":"161","gnis:feature_id":"978094","name":"Sherwood Farm Airport","wikidata":"Q61676256"}},
{"type":"Feature","geometry":{"type":"Point","coordinates":[-79.2023323,42.0281268]},"properties":{"addr:state":"NY","aeroway":"aerodrome","building":"hangar","ele":"433","faa":"3NK4","gnis:feature_id":"978092","name":"Laska Airport","wikidata":"Q34960699"}},
{"type":"Feature","geometry":{"type":"Point","coordinates":[-76.7295753,42.6428359]},"properties":{"addr:state":"NY","aeroway":"aerodrome","ele":"247","gnis:feature_id":"978082","name":"Airy-Acres Airport (6NY3)","wikidata":"Q34954574"}},
{"type":"Feature","geometry":{"type":"Point","coordinates":[-76.5318868,42.3761844]},"properties":{"addr:state":"NY","aeroway":"aerodrome","ele":"404","gnis:feature_id":"978086","name":"James Henion Private Field"}},
{"type":"Feature","geometry":{"type":"Point","coordinates":[-76.6131612,42.4497121]},"properties":{"addr:state":"NY","aeroway":"aerodrome","ele":"376","gnis:feature_id":"978085","name":"Neno International Airport"}},
{"type":"Feature","geometry":{"type":"Point","coordinates":[-76.5491091,42.5167389]},"properties":{"addr:state":"NY","aeroway":"aerodrome","ele":"116","gnis:feature_id":"978084","name":"McPherson Seaplane Base"}},
{"type":"Feature","geometry":{"type":"Point","coordinates":[-73.6956775,42.2623093]},"properties":{"addr:state":"NY","aeroway":"aerodrome","ele":"76","gnis:feature_id":"978078","name":"Claverack Airport"}},
{"type":"Feature","geometry":{"type":"Point","coordinates":[-78.5996461,42.6098402]},"properties":{"addr:state":"NY","aeroway":"aerodrome","ele":"526","gnis:feature_id":"978066","name":"Gentzke Aeronautical Park Airport"}},
{"type":"Feature","geometry":{"type":"Point","coordinates":[-78.041469,43.1796686]},"properties":{"addr:state":"NY","aeroway":"aerodrome","ele":"186","faa":"51NY","gnis:feature_id":"978067","name":"Maxon Field"}},
{"type":"Feature","geometry":{"type":"Point","coordinates":[-74.1293105,41.8317597]},"properties":{"addr:state":"NY","aeroway":"aerodrome","ele":"79","gnis:feature_id":"978064","name":"Sheeleys Farm Airport","wikidata":"Q34962720"}},
{"type":"Feature","geometry":{"type":"Point","coordinates":[-77.3806706,42.9143484]},"properties":{"addr:state":"NY","aeroway":"aerodrome","ele":"240","gnis:feature_id":"978065","name":"Creekside Airport"}},
{"type":"Feature","geometry":{"type":"Point","coordinates":[-77.6436108,42.9306188]},"properties":{"addr:state":"NY","aeroway":"aerodrome","ele":"241","gnis:feature_id":"978068","name":"Bedsons Land Base Airport"}},
{"type":"Feature","geometry":{"type":"Point","coordinates":[-77.3074857,43.0353409]},"properties":{"addr:state":"NY","aeroway":"aerodrome","ele":"158","gnis:feature_id":"978127","name":"Lakestone Farm Airport"}},
{"type":"Feature","geometry":{"type":"Point","coordinates":[-77.7141668,42.8264522]},"properties":{"addr:state":"NY","aeroway":"aerodrome","ele":"279","gnis:feature_id":"978112","name":"Hannas Acres Airport"}},
{"type":"Feature","geometry":{"type":"Point","coordinates":[-74.3934813,42.2723079]},"properties":{"addr:state":"NY","aeroway":"aerodrome","ele":"533","gnis:feature_id":"978115","name":"Maben Airport","wikidata":"Q6721565"}},
{"type":"Feature","geometry":{"type":"Point","coordinates":[-77.9383431,42.9811725]},"properties":{"addr:state":"NY","aeroway":"aerodrome","ele":"235","gnis:feature_id":"978114","name":"Le Roy Airport"}},
{"type":"Feature","geometry":{"type":"Point","coordinates":[-73.7504039,42.1487001]},"properties":{"addr:state":"NY","aeroway":"aerodrome","ele":"88","gnis:feature_id":"978118","name":"Green Acres Airport"}},
{"type":"Feature","geometry":{"type":"Point","coordinates":[-75.7596316,42.0003555]},"properties":{"addr:state":"NY","aeroway":"aerodrome","ele":"265","gnis:feature_id":"978104","name":"Kirkwood Airpark"}},
{"type":"Feature","geometry":{"type":"Point","coordinates":[-74.1545735,42.7003538]},"properties":{"addr:state":"NY","aeroway":"aerodrome","ele":"384","gnis:feature_id":"978106","name":"West Township Airport","wikidata":"Q35319031"}},
{"type":"Feature","geometry":{"type":"Point","coordinates":[-75.9046631,44.2000522]},"properties":{"addr:state":"NY","aeroway":"aerodrome","ele":"127","gnis:feature_id":"978107","name":"Tims Angus Farm Airport"}},
{"type":"Feature","geometry":{"type":"Point","coordinates":[-73.8379002,43.3125712]},"properties":{"addr:state":"NY","aeroway":"aerodrome","ele":"166","gnis:feature_id":"978109","name":"Lake Luzerne Seaplane Base","wikidata":"Q35272623"}},
{"type":"Feature","geometry":{"type":"Point","coordinates":[-74.3512541,43.4847897]},"properties":{"addr:state":"NY","aeroway":"aerodrome","ele":"526","gnis:feature_id":"978111","name":"Bostrups Landing Seaplane Base","wikidata":"Q34956548"}},
{"type":"Feature","geometry":{"type":"Point","coordinates":[-76.4074344,43.0708998]},"properties":{"addr:state":"NY","aeroway":"aerodrome","ele":"186","gnis:feature_id":"978096","name":"Anthonson Airport"}},
{"type":"Feature","geometry":{"type":"Point","coordinates":[-74.8316367,41.6837015]},"properties":{"addr:state":"NY","aeroway":"aerodrome","ele":"408","gnis:feature_id":"978097","name":"Firemans White Lake Seaplane Base","wikidata":"Q35256246"}},
{"type":"Feature","geometry":{"type":"Point","coordinates":[-78.0476371,43.3255836]},"properties":{"addr:state":"NY","aeroway":"aerodrome","ele":"103","gnis:feature_id":"978099","name":"Maynards Airport","wikidata":"Q34961297"}},
{"type":"Feature","geometry":{"type":"Point","coordinates":[-74.3323728,41.8653708]},"properties":{"addr:state":"NY","aeroway":"aerodrome","ele":"303","gnis:feature_id":"978100","name":"Piolis Brookside Airport","wikidata":"Q35289504"}},
{"type":"Feature","geometry":{"type":"Point","coordinates":[-78.5197438,42.5783951]},"properties":{"addr:state":"NY","aeroway":"aerodrome","ele":"462","gnis:feature_id":"978281","name":"High Acres Airport"}},
{"type":"Feature","geometry":{"type":"Point","coordinates":[-78.555856,42.5667285]},"properties":{"addr:state":"NY","aeroway":"aerodrome","ele":"552","gnis:feature_id":"978280","name":"Basher Field"}},
{"type":"Feature","geometry":{"type":"Point","coordinates":[-76.8816256,42.7153476]},"properties":{"addr:state":"NY","aeroway":"aerodrome","ele":"195","gnis:feature_id":"978291","name":"Seneca Army Air Field","wikidata":"Q20715066"}},
{"type":"Feature","geometry":{"type":"Point","coordinates":[-73.583057,43.0693577]},"properties":{"addr:state":"NY","aeroway":"aerodrome","ele":"23","gnis:feature_id":"978287","name":"Garnseys Airport","wikidata":"Q14706279"}},
{"type":"Feature","geometry":{"type":"Point","coordinates":[-76.5824426,42.8000694]},"properties":{"addr:state":"NY","aeroway":"aerodrome","ele":"331","gnis:feature_id":"978288","name":"Killian Airfield (historical)"}},
{"type":"Feature","geometry":{"type":"Point","coordinates":[-73.9042901,42.8497986]},"properties":{"addr:state":"NY","aeroway":"aerodrome","ele":"64","gnis:feature_id":"978285","name":"Wells Seaplane Base","wikidata":"Q35318584"}},
{"type":"Feature","geometry":{"type":"Point","coordinates":[-75.6032271,43.2522823]},"properties":{"addr:state":"NY","aeroway":"aerodrome","ele":"135","faa":"K16","gnis:feature_id":"978268","name":"Becks Grove Airport","wikidata":"Q14706175"}},
{"type":"Feature","geometry":{"type":"Point","coordinates":[-74.9448764,42.8611835]},"properties":{"addr:state":"NY","aeroway":"aerodrome","ele":"421","gnis:feature_id":"978260","name":"Richfield Airport"}},
{"type":"Feature","geometry":{"type":"Point","coordinates":[-73.9104221,44.617545]},"properties":{"addr:state":"NY","aeroway":"aerodrome","ele":"455","gnis:feature_id":"978276","name":"High Banks Farm Landing Area","wikidata":"Q35264924"}},
{"type":"Feature","geometry":{"type":"Point","coordinates":[-74.5487137,42.2975465]},"properties":{"addr:state":"NY","aeroway":"aerodrome","ele":"495","gnis:feature_id":"978274","name":"Roxbury Runway Airport","wikidata":"Q34962559"}},
{"type":"Feature","geometry":{"type":"Point","coordinates":[-73.3629941,44.991696]},"properties":{"addr:state":"NY","aeroway":"aerodrome","ele":"29","gnis:feature_id":"978273","iata":"RSX","name":"Rouses Point Seaplane Base","wikidata":"Q14707247","wikipedia":"en:Rouses Point Seaplane Base"}},
{"type":"Feature","geometry":{"type":"Point","coordinates":[-73.7694233,42.9313444]},"properties":{"addr:state":"NY","aeroway":"aerodrome","ele":"52","gnis:feature_id":"978272","name":"Round Lake Airport","wikidata":"Q34962549"}},
{"type":"Feature","geometry":{"type":"Point","coordinates":[-74.979609,41.8750882]},"properties":{"addr:state":"NY","aeroway":"aerodrome","ele":"635","gnis:feature_id":"978271","name":"Skytop Airport","wikidata":"Q35303424"}},
{"type":"Feature","geometry":{"type":"Point","coordinates":[-77.8180641,43.1695056]},"properties":{"addr:state":"NY","aeroway":"aerodrome","ele":"186","faa":"D91","gnis:feature_id":"978314","name":"Spencerport Airpark","operator":"RUSSELL J. CAMMARATA","operator:type":"private","phone":"+1 585-737-3018","wikidata":"Q35305291"}},
{"type":"Feature","geometry":{"type":"Point","coordinates":[-74.8237604,42.859795]},"properties":{"addr:state":"NY","aeroway":"aerodrome","ele":"507","gnis:feature_id":"978315","name":"De Ronda Airport"}},
{"type":"Feature","geometry":{"type":"Point","coordinates":[-79.0041193,42.3711318]},"properties":{"addr:state":"NY","aeroway":"aerodrome","ele":"395","gnis:feature_id":"978309","name":"South Dayton Airport"}},
{"type":"Feature","geometry":{"type":"Point","coordinates":[-74.7484892,42.3381382]},"properties":{"addr:state":"NY","aeroway":"aerodrome","ele":"454","gnis:feature_id":"978310","name":"Graces 4000 Airport"}},
{"type":"Feature","geometry":{"type":"Point","coordinates":[-76.4491064,42.208963]},"properties":{"addr:state":"NY","aeroway":"aerodrome","ele":"295","gnis:feature_id":"978312","name":"Saikkonen Airport"}},
{"type":"Feature","geometry":{"type":"Point","coordinates":[-73.7332361,41.5769549]},"properties":{"addr:state":"NY","aeroway":"aerodrome","closest_town":"Stormville, New York","ele":"107","faa":"N69","gnis:feature_id":"978323","is_in":"US","name":"Stormville Airport","name:en":"Stormville Airport","operator":"Tom Carnahan","source":"wikipedia","type":"public","wikidata":"Q7620274","wikipedia":"en:Stormville Airport"}},
{"type":"Feature","geometry":{"type":"Point","coordinates":[-78.6344695,42.4889511]},"properties":{"addr:state":"NY","aeroway":"aerodrome","ele":"404","gnis:feature_id":"978317","name":"Hedge Hop Field"}},
{"type":"Feature","geometry":{"type":"Point","coordinates":[-78.7350282,42.5125616]},"properties":{"addr:state":"NY","aeroway":"aerodrome","ele":"424","gnis:feature_id":"978319","name":"Ciszak Airport"}},
{"type":"Feature","geometry":{"type":"Point","coordinates":[-79.5522997,42.164982]},"properties":{"addr:state":"NY","aeroway":"aerodrome","ele":"529","gnis:feature_id":"978298","name":"Twin Ponds Airport"}},
{"type":"Feature","geometry":{"type":"Point","coordinates":[-74.6240307,42.816185]},"properties":{"addr:state":"NY","aeroway":"aerodrome","ele":"373","gnis:feature_id":"978294","name":"Boyles Landing Airport"}},
{"type":"Feature","geometry":{"type":"Point","coordinates":[-74.5770845,42.7784077]},"properties":{"addr:state":"NY","aeroway":"aerodrome","ele":"461","gnis:feature_id":"978293","name":"Sharon Airport"}},
{"type":"Feature","geometry":{"type":"Point","coordinates":[-78.3931907,42.7577672]},"properties":{"addr:state":"NY","aeroway":"aerodrome","ele":"467","gnis:feature_id":"978296","name":"Sheldon Airstrip"}},
{"type":"Feature","geometry":{"type":"Point","coordinates":[-78.3580783,43.1578365]},"properties":{"addr:state":"NY","aeroway":"aerodrome","ele":"194","gnis:feature_id":"978295","name":"Zelazny Airport","wikidata":"Q35323991"}},
{"type":"Feature","geometry":{"type":"Point","coordinates":[-73.9523534,42.2806422]},"properties":{"addr:state":"NY","aeroway":"aerodrome","ele":"56","gnis:feature_id":"978308","name":"Catskill Valley Airpark","wikidata":"Q34957521"}},
{"type":"Feature","geometry":{"type":"Point","coordinates":[-77.23276,43.0756189]},"properties":{"addr:state":"NY","aeroway":"aerodrome","ele":"135","gnis:feature_id":"978214","name":"Palmyra Airpark"}},
{"type":"Feature","geometry":{"type":"Point","coordinates":[-78.8119694,43.0889097]},"properties":{"addr:state":"NY","aeroway":"aerodrome","ele":"176","gnis:feature_id":"978222","name":"Smith Airport","wikidata":"Q35303860"}},
{"type":"Feature","geometry":{"type":"Point","coordinates":[-78.7732172,43.0818966]},"properties":{"addr:state":"NY","aeroway":"aerodrome","ele":"176","gnis:feature_id":"978220","name":"Pendleton Airpark","wikidata":"Q34962075"}},
{"type":"Feature","geometry":{"type":"Point","coordinates":[-74.1788436,43.0290244]},"properties":{"addr:state":"NY","aeroway":"aerodrome","ele":"276","gnis:feature_id":"978225","name":"Murphys Landing Strip"}},
{"type":"Feature","geometry":{"type":"Point","coordinates":[-74.242885,42.9966253]},"properties":{"addr:state":"NY","aeroway":"aerodrome","ele":"245","gnis:feature_id":"978226","name":"Wenskoski Field"}},
{"type":"Feature","geometry":{"type":"Point","coordinates":[-78.7245264,43.3219273]},"properties":{"addr:state":"NY","aeroway":"aerodrome","ele":"95","gnis:feature_id":"978197","name":"Olcott-Newfane Airport","wikidata":"Q14707132","wikipedia":"en:Olcott-Newfane Airport"}},
{"type":"Feature","geometry":{"type":"Point","coordinates":[-74.9315457,43.3139576]},"properties":{"addr:state":"NY","aeroway":"aerodrome","ele":"436","gnis:feature_id":"978196","name":"Kermizian Airport"}},
{"type":"Feature","geometry":{"type":"Point","coordinates":[-75.5247528,42.5663937]},"properties":{"addr:state":"NY","aeroway":"aerodrome","closest_town":"Norwich, New York","ele":"309","gnis:feature_id":"978194","iata":"OIC","icao":"KOIC","is_in":"US","name":"Lieutenant Warren Eaton Airport","name:en":"Lieutenant Warren Eaton Airport","name_1":"Norwich Lt. Warren Eaton Airport","operator":"Chenango County","source":"wikipedia","type":"public","wikidata":"Q6694759","wikipedia":"en:Lt. Warren Eaton Airport"}},
{"type":"Feature","geometry":{"type":"Point","coordinates":[-78.3152936,42.1167326]},"properties":{"addr:state":"NY","aeroway":"aerodrome","ele":"513","gnis:feature_id":"978200","name":"Reiss Game Farm Airport"}},
{"type":"Feature","geometry":{"type":"Point","coordinates":[-78.4070606,42.0680151]},"properties":{"addr:state":"NY","aeroway":"aerodrome","ele":"433","gnis:feature_id":"978198","name":"Giermek Executive Airport"}},
{"type":"Feature","geometry":{"type":"Point","coordinates":[-75.0646,42.5243]},"properties":{"addr:state":"NY","aeroway":"aerodrome","closest_town":"Oneonta, New York","ele":"536","faa":"N66","gnis:feature_id":"978204","iata":"ONH","is_in":"US","name":"Oneonta Municipal Airport","name:en":"Oneonta Municipal Airport","operator":"City of Oneonta","source":"wikipedia","type":"public","wikidata":"Q7093721","wikipedia":"en:Oneonta Municipal Airport"}},
{"type":"Feature","geometry":{"type":"Point","coordinates":[-74.1634615,42.7295201]},"properties":{"addr:state":"NY","aeroway":"aerodrome","ele":"336","gnis:feature_id":"978249","name":"Knox Airport"}},
{"type":"Feature","geometry":{"type":"Point","coordinates":[-79.0165185,42.1557741]},"properties":{"access":"private","addr:state":"NY","aeroway":"aerodrome","ele":"502","gnis:feature_id":"978251","name":"Randolph Airport"}},
{"type":"Feature","geometry":{"type":"Point","coordinates":[-77.9605584,42.4061776]},"properties":{"addr:state":"NY","aeroway":"aerodrome","ele":"590","gnis:feature_id":"978252","name":"Four Seasons Airport"}},
{"type":"Feature","geometry":{"type":"Point","coordinates":[-76.6893947,43.2200668]},"properties":{"addr:state":"NY","aeroway":"aerodrome","ele":"129","gnis:feature_id":"978253","name":"Paradise Airport"}},
{"type":"Feature","geometry":{"type":"Point","coordinates":[-75.1840542,43.3600691]},"properties":{"access":"private","addr:state":"NY","aeroway":"aerodrome","alt_name":"Remsen City Airport (NY57)","ele":"385","faa":"NY57","gnis:feature_id":"978255","name":"Remsen City Airport"}},
{"type":"Feature","geometry":{"type":"Point","coordinates":[-74.114127,42.5128567]},"properties":{"access":"private","addr:state":"NY","aeroway":"aerodrome","ele":"510","gnis:feature_id":"978258","name":"Waxwing Airport","wikidata":"Q35317839"}},
{"type":"Feature","geometry":{"type":"Point","coordinates":[-76.3682668,43.2236792]},"properties":{"addr:state":"NY","aeroway":"aerodrome","ele":"122","faa":"NY31","gnis:feature_id":"978228","name":"Rabbit Lane Airport"}},
{"type":"Feature","geometry":{"type":"Point","coordinates":[-74.1504082,43.0328518]},"properties":{"addr:state":"NY","aeroway":"aerodrome","ele":"280","gnis:feature_id":"978227","name":"Hart Airport"}},
{"type":"Feature","geometry":{"type":"Point","coordinates":[-74.5143164,43.427847]},"properties":{"addr:state":"NY","aeroway":"aerodrome","ele":"516","gnis:feature_id":"978230","name":"Knox Bay Seaplane Base","wikidata":"Q35271421"}},
{"type":"Feature","geometry":{"type":"Point","coordinates":[-74.5156577,43.452269]},"properties":{"addr:state":"NY","aerodrome:type":"public","aeroway":"aerodrome","ele":"517","gnis:feature_id":"978231","iata":"K09","is_in":"US","name":"Piseco Airport","name:en":"Piseco Airport","note":"Arietta, New York","operator":"Piseco, New York","source":"wikipedia","wikidata":"Q7198267","wikipedia":"en:Piseco Airport"}},
{"type":"Feature","geometry":{"type":"Point","coordinates":[-75.9996537,42.8860218]},"properties":{"addr:state":"NY","aeroway":"aerodrome","ele":"420","gnis:feature_id":"978234","name":"Wallbridge Airport"}},
{"type":"Feature","geometry":{"type":"Point","coordinates":[-75.2533646,43.4676174]},"properties":{"addr:state":"NY","aeroway":"aerodrome","ele":"356","gnis:feature_id":"2100985","name":"Boonville Landing Field"}},
{"type":"Feature","geometry":{"type":"Point","coordinates":[-75.2225,43.05]},"properties":{"addr:state":"NY","aeroway":"aerodrome","ele":"341","gnis:feature_id":"2392932","historic":"yes","name":"Smithport Airport"}},
{"type":"Feature","geometry":{"type":"Point","coordinates":[-77.1199767,43.2347869]},"properties":{"addr:state":"NY","aeroway":"aerodrome","ele":"129.3","gnis:feature_id":"978372","icao":"KSDC","internet_access":"wlan","internet_access:fee":"customers","name":"Williamson-Sodus Airport","operator":"Williamson Flying Club","operator:type":"private","website":"https://www.williamsonflyingclub.com/"}},
{"type":"Feature","geometry":{"type":"Point","coordinates":[-73.4323491,44.1583863]},"properties":{"addr:state":"NY","aeroway":"aerodrome","ele":"83","gnis:feature_id":"978367","name":"Westport Airport","wikidata":"Q35319178"}},
{"type":"Feature","geometry":{"type":"Point","coordinates":[-75.2996117,42.7389607]},"properties":{"addr:state":"NY","aeroway":"aerodrome","ele":"348","gnis:feature_id":"978361","name":"Tri County Airways Airport"}},
{"type":"Feature","geometry":{"type":"Point","coordinates":[-77.495191,42.9009993]},"properties":{"addr:state":"NY","aeroway":"aerodrome","ele":"312","gnis:feature_id":"978359","name":"Weiss Airfield"}},
{"type":"Feature","geometry":{"type":"Point","coordinates":[-77.5483284,42.9024837]},"properties":{"addr:state":"NY","aeroway":"aerodrome","ele":"276","gnis:feature_id":"978360","name":"Fort Hill Airport"}},
{"type":"Feature","geometry":{"type":"Point","coordinates":[-76.53854,43.079513]},"properties":{"addr:state":"NY","aeroway":"aerodrome","ele":"118","gnis:feature_id":"978357","name":"Whitfords Airport"}},
{"type":"Feature","geometry":{"type":"Point","coordinates":[-77.532495,42.8833972]},"properties":{"addr:state":"NY","aeroway":"aerodrome","ele":"291","gnis:feature_id":"978358","name":"Krenzers Airport"}},
{"type":"Feature","geometry":{"type":"Point","coordinates":[-73.6378949,42.6584126]},"properties":{"addr:state":"NY","aeroway":"aerodrome","ele":"154","gnis:feature_id":"978379","name":"Snyders Lake Seaplane Base"}},
{"type":"Feature","geometry":{"type":"Point","coordinates":[-74.4579352,41.597038]},"properties":{"addr:state":"NY","aeroway":"aerodrome","ele":"164","gnis:feature_id":"978378","name":"Wurtsboro-Sullivan County Airport","wikidata":"Q8039315"}},
{"type":"Feature","geometry":{"type":"Point","coordinates":[-76.8074571,43.1667325]},"properties":{"addr:state":"NY","aeroway":"aerodrome","ele":"146","gnis:feature_id":"978375","name":"Hill Top Airpark"}},
{"type":"Feature","geometry":{"type":"Point","coordinates":[-78.7864546,43.2339264]},"properties":{"addr:state":"NY","aeroway":"aerodrome","ele":"113","faa":"99NY","gnis:feature_id":"978374","name":"Hibbard's Airport"}},
{"type":"Feature","geometry":{"type":"Point","coordinates":[-73.760034,44.4207105]},"properties":{"addr:state":"NY","aeroway":"aerodrome","ele":"280","gnis:feature_id":"978373","name":"Catalano Airfield"}},
{"type":"Feature","geometry":{"type":"Point","coordinates":[-77.885556,42.6376918]},"properties":{"addr:state":"NY","aeroway":"aerodrome","ele":"271","gnis:feature_id":"978338","name":"Tuscarora Plateau Airport"}},
{"type":"Feature","geometry":{"type":"Point","coordinates":[-76.6907816,42.8250687]},"properties":{"addr:state":"NY","aeroway":"aerodrome","ele":"161","gnis:feature_id":"978339","name":"Saint Bernard Field"}},
{"type":"Feature","geometry":{"type":"Point","coordinates":[-75.1728509,43.0185013]},"properties":{"addr:state":"NY","aeroway":"aerodrome","ele":"408","faa":"6B4","gnis:feature_id":"978340","name":"Frankfort-Highland Airport","wikidata":"Q5490787","wikipedia":"en:Frankfort-Highland Airport"}},
{"type":"Feature","geometry":{"type":"Point","coordinates":[-76.21576,43.100067]},"properties":{"addr:state":"NY","aeroway":"aerodrome","ele":"110","gnis:feature_id":"978334","name":"Onondaga Lake Seaplane Base","wikidata":"Q34961720"}},
{"type":"Feature","geometry":{"type":"Point","coordinates":[-73.4120994,43.8693248]},"properties":{"addr:state":"NY","aeroway":"aerodrome","ele":"73","gnis:feature_id":"978335","name":"Ticonderoga Municipal Airport","wikidata":"Q7800749"}},
{"type":"Feature","geometry":{"type":"Point","coordinates":[-76.7699537,42.2056304]},"properties":{"addr:state":"NY","aeroway":"aerodrome","ele":"316","gnis:feature_id":"978329","name":"Dodge-Coppola-Wheeler Airport"}},
{"type":"Feature","geometry":{"type":"Point","coordinates":[-78.4622313,42.7530627]},"properties":{"addr:state":"NY","aeroway":"aerodrome","ele":"435","gnis:feature_id":"978327","name":"Bloecher Farm Airport"}},
{"type":"Feature","geometry":{"type":"Point","coordinates":[-76.8531197,42.8479823]},"properties":{"addr:state":"NY","aeroway":"aerodrome","ele":"174","gnis:feature_id":"978353","name":"Airtrek Airport","wikidata":"Q34954563"}},
{"type":"Feature","geometry":{"type":"Point","coordinates":[-76.9114286,42.4522223]},"properties":{"addr:state":"NY","aeroway":"aerodrome","ele":"259","gnis:feature_id":"978356","name":"Schuyler Airport","wikidata":"Q35299804"}},
{"type":"Feature","geometry":{"type":"Point","coordinates":[-75.4135053,42.9214588]},"properties":{"addr:state":"NY","aeroway":"aerodrome","ele":"409","gnis:feature_id":"978355","name":"Valley View Airport"}},
{"type":"Feature","geometry":{"type":"Point","coordinates":[-73.9170702,42.6206341]},"properties":{"addr:state":"NY","aeroway":"aerodrome","ele":"124","gnis:feature_id":"978346","name":"Peck Airport","wikidata":"Q34962012"}},
{"type":"Feature","geometry":{"type":"Point","coordinates":[-78.4761324,42.7892268]},"properties":{"addr:state":"NY","aeroway":"aerodrome","ele":"391","gnis:feature_id":"978348","name":"Fisher Airport"}},
{"type":"Feature","geometry":{"type":"Point","coordinates":[-78.5420362,42.7707477]},"properties":{"addr:state":"NY","aeroway":"aerodrome","ele":"310","gnis:feature_id":"978347","name":"Donnellys Airport"}},
{"type":"Feature","geometry":{"type":"Point","coordinates":[-75.2671104,43.133403]},"properties":{"addr:state":"NY","aeroway":"aerodrome","ele":"126","gnis:feature_id":"978342","name":"Riverside Airport","note":"no longer in operation"}},
{"type":"Feature","geometry":{"type":"Point","coordinates":[-76.1778039,43.2649145]},"properties":{"aeroway":"aerodrome","closest_town":"Syracuse, New York","ele":"122","faa":"6NK","gnis:feature_id":"2435029","is_in":"US","name":"Syracuse Suburban Airport","operator":"Syracuse Suburban Airport LLC","source":"wikipedia","type":"public","wikidata":"Q7663070","wikipedia":"en:Syracuse Suburban Airport"}},
{"type":"Feature","geometry":{"type":"Point","coordinates":[-75.7175547,44.0545394]},"properties":{"aeroway":"aerodrome","closest_town":"Fort Drum, New York","ele":"210.3","faa_lid":"GTB","icao":"KGTB","is_in:iso_3166_2":"US-NY","landuse":"military","military":"airfield","name":"Wheeler-Sack Army Airfield","operator":"US Army","source":"wikipedia","wikidata":"Q7992189","wikipedia":"en:Wheeler-Sack Army Airfield"}},
{"type":"Feature","geometry":{"type":"Point","coordinates":[-75.711356,44.0587722]},"properties":{"aeroway":"aerodrome","landuse":"military","military":"airfield","name":"Wheeler-Sack Army Airfield"}},
{"type":"Feature","geometry":{"type":"Point","coordinates":[-73.8090085,42.7555337]},"properties":{"barrier":"gate"}},
{"type":"Feature","geometry":{"type":"Point","coordinates":[-73.8915292,43.0313874]},"properties":{"aeroway":"aerodrome","name":"Middleline Field"}},
{"type":"Feature","geometry":{"type":"Point","coordinates":[-74.5189478,41.3672445]},"properties":{"aeroway":"aerodrome","name":"Md1 Airport","source":"ourairports.com;https://www.airnav.com/airport/08NY"}},
{"type":"Feature","geometry":{"type":"Point","coordinates":[-73.6704025,41.9208984]},"properties":{"aeroway":"aerodrome","name":"Rocky Reef Farm Airport","source":"ourairports.com"}},
{"type":"Feature","geometry":{"type":"Point","coordinates":[-74.611702,42.9138985]},"properties":{"aeroway":"aerodrome","name":"Hop House Airpark","source":"ourairports.com","wikidata":"Q61676188"}},
{"type":"Feature","geometry":{"type":"Point","coordinates":[-73.4789963,43.3400002]},"properties":{"aeroway":"aerodrome","name":"Mountain View Airport","source":"ourairports.com"}},
{"type":"Feature","geometry":{"type":"Point","coordinates":[-76.1521986,43.2435176]},"properties":{"aeroway":"aerodrome","name":"Riveredge Airpark","source":"ourairports.com"}},
{"type":"Feature","geometry":{"type":"Point","coordinates":[-75.1911011,42.5527992]},"properties":{"aeroway":"aerodrome","name":"Don Kichote Airport","source":"ourairports.com"}},
{"type":"Feature","geometry":{"type":"Point","coordinates":[-77.3125,43.1124992]},"properties":{"aeroway":"aerodrome","name":"Long Acre Farms Airport","source":"ourairports.com"}},
{"type":"Feature","geometry":{"type":"Point","coordinates":[-77.127814,42.4355737]},"properties":{"aeroway":"aerodrome","name":"Loucks Airport","source":"ourairports.com"}},
{"type":"Feature","geometry":{"type":"Point","coordinates":[-75.044467,43.113317]},"properties":{"aeroway":"aerodrome","faa":"27NK","name":"Mohawk Air Park","note":"Private Airport","source":"ourairports.com"}},
{"type":"Feature","geometry":{"type":"Point","coordinates":[-79.2277949,42.3053254]},"properties":{"aeroway":"aerodrome","name":"Spaudling Aerodrome","source":"ourairports.com"}},
{"type":"Feature","geometry":{"type":"Point","coordinates":[-74.0772018,41.6571999]},"properties":{"aeroway":"aerodrome","name":"Old Orchard Airpark","source":"ourairports.com","wikidata":"Q35285885"}},
{"type":"Feature","geometry":{"type":"Point","coordinates":[-78.0479373,43.0760491]},"properties":{"aeroway":"aerodrome","name":"Sackett Farms Airstrip","source":"ourairports.com"}},
{"type":"Feature","geometry":{"type":"Point","coordinates":[-73.8692503,42.3971249]},"properties":{"aeroway":"aerodrome","name":"Wayne Delp Airport","source":"ourairports.com","wikidata":"Q35317881"}},
{"type":"Feature","geometry":{"type":"Point","coordinates":[-73.4653015,44.6166992]},"properties":{"aeroway":"aerodrome","name":"Secret Spot Airport","source":"ourairports.com","wikidata":"Q35300259"}},
{"type":"Feature","geometry":{"type":"Point","coordinates":[-73.6107309,42.1395482]},"properties":{"aeroway":"aerodrome","name":"B Flat Farm Airport","source":"ourairports.com"}},
{"type":"Feature","geometry":{"type":"Point","coordinates":[-74.4039993,42.827301]},"properties":{"aeroway":"aerodrome","name":"The Ranch Airport","source":"ourairports.com"}},
{"type":"Feature","geometry":{"type":"Point","coordinates":[-74.1772445,42.8405828]},"properties":{"access":"private","aeroway":"aerodrome","name":"Six Ponds Airport","wikidata":"Q34962880"}},
{"type":"Feature","geometry":{"type":"Point","coordinates":[-74.5177345,42.9841699]},"properties":{"aeroway":"aerodrome","name":"Hiserts Airpark Inc Airport","source":"ourairports.com","wikidata":"Q35265423"}},
{"type":"Feature","geometry":{"type":"Point","coordinates":[-78.6710493,42.6645584]},"properties":{"aeroway":"aerodrome","name":"Hilltop Airport","source":"ourairports.com"}},
{"type":"Feature","geometry":{"type":"Point","coordinates":[-73.3843236,44.3125083]},"properties":{"aeroway":"aerodrome","name":"Bonebender Airport","source":"ourairports.com","wikidata":"Q34956504"}},
{"type":"Feature","geometry":{"type":"Point","coordinates":[-76.0561981,42.6689987]},"properties":{"aeroway":"aerodrome","name":"Walter's Field","source":"ourairports.com","wikidata":"Q61676157"}},
{"type":"Feature","geometry":{"type":"Point","coordinates":[-74.6406813,42.9323083]},"properties":{"addr:city":"Fort Plain","addr:housenumber":"106","addr:postcode":"13339","addr:state":"NY","addr:street":"Pickle Hill Road","aeroway":"aerodrome","iata":"44NY","name":"Tomcat Airport","nysgissam:nysaddresspointid":"MONT016738","phone":"(518) 993-3651","source":"ourairports.com"}},
{"type":"Feature","geometry":{"type":"Point","coordinates":[-76.7610016,43.0187988]},"properties":{"aeroway":"aerodrome","name":"Savannah Agri-Air Airport","source":"ourairports.com","wikidata":"Q35299210"}},
{"type":"Feature","geometry":{"type":"Point","coordinates":[-77.3499985,42.0449982]},"properties":{"aeroway":"aerodrome","name":"Elk Creek Airport","source":"ourairports.com"}},
{"type":"Feature","geometry":{"type":"Point","coordinates":[-77.2754974,42.7094994]},"properties":{"aeroway":"aerodrome","name":"Middlesex Valley Airport","source":"ourairports.com","wikidata":"Q34961505"}},
{"type":"Feature","geometry":{"type":"Point","coordinates":[-73.41965,43.145233]},"properties":{"aeroway":"aerodrome","name":"Tracy Field","source":"ourairports.com"}},
{"type":"Feature","geometry":{"type":"Point","coordinates":[-76.0278988,42.8283752]},"properties":{"aeroway":"aerodrome","name":"Woodford Airfield","source":"ourairports.com"}},
{"type":"Feature","geometry":{"type":"Point","coordinates":[-77.1774979,43.1610985]},"properties":{"aeroway":"aerodrome","name":"Ag-Alley Airport","source":"ourairports.com"}},
{"type":"Feature","geometry":{"type":"Point","coordinates":[-74.1871033,43.0009003]},"properties":{"aeroway":"aerodrome","name":"Longwell Airport","source":"ourairports.com"}},
{"type":"Feature","geometry":{"type":"Point","coordinates":[-78.0353012,42.3550987]},"properties":{"aeroway":"aerodrome","name":"Erb Acres Airport","source":"ourairports.com","wikidata":"Q34959181"}},
{"type":"Feature","geometry":{"type":"Point","coordinates":[-76.1436005,44.0442009]},"properties":{"aeroway":"aerodrome","name":"Salubrious Point Airport","source":"ourairports.com"}},
{"type":"Feature","geometry":{"type":"Point","coordinates":[-77.0515178,43.1102887]},"properties":{"aeroway":"aerodrome","name":"Toggenburg Farms Airport","source":"ourairports.com"}},
{"type":"Feature","geometry":{"type":"Point","coordinates":[-78.4961014,42.7616997]},"properties":{"aeroway":"aerodrome","name":"Treichler Farm Airport","source":"ourairports.com"}},
{"type":"Feature","geometry":{"type":"Point","coordinates":[-78.9653015,43.2612]},"properties":{"aeroway":"aerodrome","name":"Shear Airport","source":"ourairports.com","wikidata":"Q34962710"}},
{"type":"Feature","geometry":{"type":"Point","coordinates":[-76.924145,42.3671055]},"properties":{"aeroway":"aerodrome","name":"Hemlock Run Airport","source":"ourairports.com","wikidata":"Q35263961"}},
{"type":"Feature","geometry":{"type":"Point","coordinates":[-73.8162003,40.8459015]},"properties":{"aeroway":"aerodrome","faa":"6N6","name":"Evers Seaplane Base","source":"ourairports.com","wikidata":"Q34959201"}},
{"type":"Feature","geometry":{"type":"Point","coordinates":[-74.8210502,42.6246234]},"properties":{"aeroway":"aerodrome","name":"Knapp Airport","source":"ourairports.com"}},
{"type":"Feature","geometry":{"type":"Point","coordinates":[-73.3386497,42.9488803]},"properties":{"aeroway":"aerodrome","name":"Meerwarth Airport","source":"ourairports.com"}},
{"type":"Feature","geometry":{"type":"Point","coordinates":[-77.0930694,42.1119544]},"properties":{"aeroway":"aerodrome","name":"Old Port Royal Airport","source":"ourairports.com"}},
{"type":"Feature","geometry":{"type":"Point","coordinates":[-75.310033,42.265767]},"properties":{"aeroway":"aerodrome","name":"Olmstead Landing Strip","source":"ourairports.com","wikidata":"Q35286023"}},
{"type":"Feature","geometry":{"type":"Point","coordinates":[-77.2908628,43.0070171]},"properties":{"aeroway":"aerodrome","name":"New Salem Aerodrome","source":"ourairports.com"}},
{"type":"Feature","geometry":{"type":"Point","coordinates":[-77.8128362,43.2199936]},"properties":{"addr:city":"Spencerport","addr:postcode":"14559","addr:state":"NY","aeroway":"aerodrome","description":"Small private unattended turf General Aviation airport.","ele":"121.92","faa":"7NK4","internet_access":"no","name":"Ridge Road West Airport","operator":"Norman J Hasman","operator:type":"private","source":"ourairports.com;https://www.airport-data.com/airport/7NK4/;https://adip.faa.gov/agis/public/#/airportData/7NK4"}},
{"type":"Feature","geometry":{"type":"Point","coordinates":[-75.0667038,42.2916985]},"properties":{"aeroway":"aerodrome","name":"Blueberry Field","source":"ourairports.com"}},
{"type":"Feature","geometry":{"type":"Point","coordinates":[-74.2785034,42.763401]},"properties":{"aeroway":"aerodrome","name":"Gar Field","source":"ourairports.com"}},
{"type":"Feature","geometry":{"type":"Point","coordinates":[-76.0947037,43.843399]},"properties":{"aeroway":"aerodrome","name":"Butterville Airport","source":"ourairports.com"}},
{"type":"Feature","geometry":{"type":"Point","coordinates":[-78.138298,42.9432983]},"properties":{"aeroway":"aerodrome","faa":"8NK4","name":"Bethany Airpark","source":"ourairports.com"}},
{"type":"Feature","geometry":{"type":"Point","coordinates":[-75.1661443,42.7122046]},"properties":{"aeroway":"aerodrome","name":"Suntime Airport","source":"ourairports.com"}},
{"type":"Feature","geometry":{"type":"Point","coordinates":[-75.5597,42.2686996]},"properties":{"aeroway":"aerodrome","name":"North Fork Airport","source":"ourairports.com"}},
{"type":"Feature","geometry":{"type":"Point","coordinates":[-74.1449287,42.8193299]},"properties":{"access":"private","aeroway":"aerodrome","name":"Mariaville Aerodrome","source":"ourairports.com"}},
{"type":"Feature","geometry":{"type":"Point","coordinates":[-79.0818024,42.1007996]},"properties":{"aeroway":"aerodrome","name":"Kennedy Airfield","source":"ourairports.com"}},
{"type":"Feature","geometry":{"type":"Point","coordinates":[-74.9862976,42.3247986]},"properties":{"aeroway":"aerodrome","faa":"9NY6","name":"Mason Airway Airport","wikidata":"Q34961215"}},
{"type":"Feature","geometry":{"type":"Point","coordinates":[-74.7619019,43.7428017]},"properties":{"aeroway":"aerodrome","name":"Seventh Lake Seaplane Base","source":"ourairports.com"}},
{"type":"Feature","geometry":{"type":"Point","coordinates":[-73.902357,40.6053762]},"properties":{"addr:city":"Brooklyn","addr:housenumber":"2620","addr:postcode":"11234","addr:state":"NY","addr:street":"National Drive","aeroway":"aerodrome","name":"Jamaica Bay Seaplane Base","operator":"Sal Fontana","operator:type":"private"}},
{"type":"Feature","geometry":{"type":"Point","coordinates":[-74.9664993,42.9875984]},"properties":{"aeroway":"aerodrome","name":"Mohawk Aviation Center Airport","source":"ourairports.com"}},
{"type":"Feature","geometry":{"type":"Point","coordinates":[-77.4274979,42.1622009]},"properties":{"aeroway":"aerodrome","name":"Randall's Roost Airport","source":"ourairports.com"}},
{"type":"Feature","geometry":{"type":"Point","coordinates":[-74.0912018,43.009201]},"properties":{"aeroway":"aerodrome","name":"Galway Airport","source":"ourairports.com","wikidata":"Q35259192"}},
{"type":"Feature","geometry":{"type":"Point","coordinates":[-78.9863968,42.9928017]},"properties":{"aeroway":"aerodrome","name":"Mesmer Airport","source":"ourairports.com","wikidata":"Q34961378"}},
{"type":"Feature","geometry":{"type":"Point","coordinates":[-74.1361008,42.9916992]},"properties":{"aeroway":"aerodrome","name":"Johnson Airport","source":"ourairports.com"}},
{"type":"Feature","geometry":{"type":"Point","coordinates":[-75.5464058,43.1451421]},"properties":{"aeroway":"aerodrome","name":"Curtis Airport","source":"ourairports.com","wikidata":"Q34958333"}},
{"type":"Feature","geometry":{"type":"Point","coordinates":[-73.4736945,43.0528105]},"properties":{"aeroway":"aerodrome","name":"Archdale Meadows Airport","source":"ourairports.com"}},
{"type":"Feature","geometry":{"type":"Point","coordinates":[-78.9003534,42.315091]},"properties":{"aeroway":"aerodrome","alt_name":"Neverland Airport (NY76)","ele":"579","faa":"NY76","name":"Neverland Airport","source":"ourairports.com"}},
{"type":"Feature","geometry":{"type":"Point","coordinates":[-75.7027525,42.9942891]},"properties":{"aeroway":"aerodrome","alt_name":"Cloverdale Farm Airport (NY91)","faa:lid":"NY91","name":"Cloverdale Farm Airport","source":"ourairports.com","wikidata":"Q34958020"}},
{"type":"Feature","geometry":{"type":"Point","coordinates":[-76.4834013,42.7365397]},"properties":{"aeroway":"aerodrome","faa":"2N4","name":"Owasco Airport","source":"ourairports.com","wikidata":"Q7114292","wikipedia":"en:Owasco Airport"}},
{"type":"Feature","geometry":{"type":"Point","coordinates":[-77.0979922,42.0006069]},"properties":{"aeroway":"aerodrome","name":"Canaan's Field","source":"ourairports.com"}},
{"type":"Feature","geometry":{"type":"Point","coordinates":[-78.7149863,42.9486325]},"properties":{"access":"private","barrier":"gate"}},
{"type":"Feature","geometry":{"type":"Point","coordinates":[-72.5205321,40.9908827]},"properties":{"barrier":"gate"}},
{"type":"Feature","geometry":{"type":"Point","coordinates":[-72.7509724,40.8244307]},"properties":{"addr:state":"NY","aeroway":"aerodrome","closest_town":"East Moriches, New York","ele":"15","faa":"1N2","gnis:feature_id":"977996","name":"Lufker Airport","ref":"49N","type":"public"}},
{"type":"Feature","geometry":{"type":"Point","coordinates":[-73.7172738,40.8362982]},"properties":{"addr:state":"NY","aeroway":"aerodrome","closest_town":"Port Washington, New York","ele":"1","faa":"7N3","gnis:feature_id":"978238","name":"Sands Point Seaplane Base","operator":"Brewer Capri Marina","source":"wikipedia","type":"public","wikidata":"Q7416907","wikipedia":"en:Sands Point Seaplane Base"}},
{"type":"Feature","geometry":{"type":"Point","coordinates":[-73.7920255,40.63593]},"properties":{"barrier":"gate"}},
{"type":"Feature","geometry":{"type":"Point","coordinates":[-73.7944916,42.7440642]},"properties":{"barrier":"lift_gate"}},
{"type":"Feature","geometry":{"type":"Point","coordinates":[-73.7944007,42.7439749]},"properties":{"barrier":"lift_gate"}},
{"type":"Feature","geometry":{"type":"Point","coordinates":[-76.0815547,44.1861941]},"properties":{"access":"private","barrier":"gate","bicycle":"yes","foot":"yes","motorcar":"yes","motorcycle":"yes"}},
{"type":"Feature","geometry":{"type":"Point","coordinates":[-75.1605257,44.5453633]},"properties":{"aeroway":"aerodrome","name":"Hurlbut Field"}},
{"type":"Feature","geometry":{"type":"Point","coordinates":[-74.2558779,41.5088446]},"properties":{"barrier":"gate"}},
{"type":"Feature","geometry":{"type":"Point","coordinates":[-74.2603131,41.5050529]},"properties":{"barrier":"gate"}},
{"type":"Feature","geometry":{"type":"Point","coordinates":[-74.0924392,41.5094961]},"properties":{"barrier":"gate"}},
{"type":"Feature","geometry":{"type":"Point","coordinates":[-77.6843795,43.1062526]},"properties":{"access":"no","barrier":"gate"}},
{"type":"Feature","geometry":{"type":"Point","coordinates":[-75.9114014,42.993034]},"properties":{"addr:city":"Manlius","addr:housenumber":"4520","addr:postcode":"13104","addr:state":"NY","addr:street":"Palmer Road","aeroway":"aerodrome","faa":"NY67","name":"Carter Ultralight Flight Park","wikidata":"Q61676284"}},
{"type":"Feature","geometry":{"type":"Point","coordinates":[-73.0857124,40.7946587]},"properties":{"barrier":"gate"}},
{"type":"Feature","geometry":{"type":"Point","coordinates":[-75.0931162,41.9727437]},"properties":{"aeroway":"aerodrome","name":"Peakville Landing Strip (historical)"}},
{"type":"Feature","geometry":{"type":"Point","coordinates":[-73.5339832,43.407435]},"properties":{"addr:city":"Fort Ann","addr:housenumber":"10915","addr:postcode":"12827","addr:state":"NY","addr:street":"State Route 149","aeroway":"aerodrome","iata":"83K","icao":"83K","name":"Harris Airport","nysgissam:nysaddresspointid":"WASH027615"}},
{"type":"Feature","geometry":{"type":"Point","coordinates":[-76.897962,42.1617716]},"properties":{"barrier":"gate"}},
{"type":"Feature","geometry":{"type":"Point","coordinates":[-72.5188437,40.9838778]},"properties":{"barrier":"gate"}},
{"type":"Feature","geometry":{"type":"Point","coordinates":[-73.4137229,40.7409209]},"properties":{"access:delivery":"no","barrier":"gate"}},
{"type":"Feature","geometry":{"type":"Point","coordinates":[-72.3239549,41.0737697]},"properties":{"direction":"backward","highway":"stop"}},
{"type":"Feature","geometry":{"type":"Point","coordinates":[-76.5377299,42.3826199]},"properties":{"aeroway":"aerodrome","name":"Skyhook Lodge Airport"}},
{"type":"Feature","geometry":{"type":"Point","coordinates":[-74.1136997,43.2297497]},"properties":{"direction":"forward","highway":"stop"}},
{"type":"Feature","geometry":{"type":"Point","coordinates":[-76.1165878,43.124399]},"properties":{"access":"no","barrier":"gate"}},
{"type":"Feature","geometry":{"type":"Point","coordinates":[-73.8665068,40.7833594]},"properties":{"FAA:LFSN":"15063.*C","addr:state":"NY","aeroway":"aerodrome","faa":"4NY2","name":"Edo Seaplane Base","wikidata":"Q34959081"}},
{"type":"Feature","geometry":{"type":"Point","coordinates":[-78.7265964,42.9455428]},"properties":{"barrier":"gate"}},
{"type":"Feature","geometry":{"type":"Point","coordinates":[-76.8873467,42.1606514]},"properties":{"barrier":"gate"}},
{"type":"Feature","geometry":{"type":"Point","coordinates":[-76.8924977,42.1691932]},"properties":{"barrier":"gate"}},
{"type":"Feature","geometry":{"type":"Point","coordinates":[-76.8933657,42.1668597]},"properties":{"barrier":"gate"}},
{"type":"Feature","geometry":{"type":"Point","coordinates":[-76.8932667,42.1646308]},"properties":{"barrier":"gate"}},
{"type":"Feature","geometry":{"type":"Point","coordinates":[-76.8956401,42.1655479]},"properties":{"barrier":"gate"}},
{"type":"Feature","geometry":{"type":"Point","coordinates":[-76.8946503,42.1648766]},"properties":{"barrier":"gate"}},
{"type":"Feature","geometry":{"type":"Point","coordinates":[-76.8947385,42.1663553]},"properties":{"barrier":"gate"}},
{"type":"Feature","geometry":{"type":"Point","coordinates":[-76.8945839,42.1663536]},"properties":{"barrier":"gate"}},
{"type":"Feature","geometry":{"type":"Point","coordinates":[-76.9024932,42.1601163]},"properties":{"barrier":"gate"}},
{"type":"Feature","geometry":{"type":"Point","coordinates":[-76.9018056,42.1604322]},"properties":{"barrier":"gate"}},
{"type":"Feature","geometry":{"type":"Point","coordinates":[-76.8837125,42.1707447]},"properties":{"barrier":"gate"}},
{"type":"Feature","geometry":{"type":"Point","coordinates":[-76.8808447,42.1647786]},"properties":{"barrier":"gate"}},
{"type":"Feature","geometry":{"type":"Point","coordinates":[-76.886805,42.1552359]},"properties":{"barrier":"gate"}},
{"type":"Feature","geometry":{"type":"Point","coordinates":[-76.9035567,42.1519236]},"properties":{"barrier":"gate"}},
{"type":"Feature","geometry":{"type":"Point","coordinates":[-76.9086677,42.1518849]},"properties":{"barrier":"gate"}},
{"type":"Feature","geometry":{"type":"Point","coordinates":[-76.9055845,42.1553754]},"properties":{"barrier":"gate"}},
{"type":"Feature","geometry":{"type":"Point","coordinates":[-77.6824154,43.1183124]},"properties":{"barrier":"gate"}},
{"type":"Feature","geometry":{"type":"Point","coordinates":[-73.4783984,44.6585189]},"properties":{"access":"private","barrier":"gate"}},
{"type":"Feature","geometry":{"type":"Point","coordinates":[-73.4583837,44.655921]},"properties":{"access":"private","barrier":"gate"}},
{"type":"Feature","geometry":{"type":"Point","coordinates":[-73.4624552,44.6579566]},"properties":{"access":"private","barrier":"gate"}},
{"type":"Feature","geometry":{"type":"Point","coordinates":[-73.4662884,44.6642561]},"properties":{"access":"private","barrier":"gate"}},
{"type":"Feature","geometry":{"type":"Point","coordinates":[-78.7397578,42.9441636]},"properties":{"access:delivery":"no","barrier":"gate"}},
{"type":"Feature","geometry":{"type":"Point","coordinates":[-73.8073791,42.7560114]},"properties":{"barrier":"gate"}},
{"type":"Feature","geometry":{"type":"LineString","coordinates":[[-76.2994006,44.2064068],[-76.2995467,44.2065767],[-76.2944235,44.2095946],[-76.2943258,44.2093707],[-76.2994006,44.2064068]]},"properties":{"aeroway":"aerodrome","attribution":"Natural Resources Canada","canvec:CODE":"1190102","class":"indefinite","landuse":"airport","source":"CanVec_Import_2009"}},
{"type":"Feature","geometry":{"type":"LineString","coordinates":[[-73.271458,43.4251554],[-73.2711715,43.424941],[-73.2700418,43.4240957],[-73.2677673,43.4216956],[-73.2670378,43.4214151],[-73.2666944,43.4211969],[-73.2662653,43.420854],[-73.2662653,43.42048],[-73.2664799,43.4201059],[-73.2666515,43.4196695],[-73.2641195,43.4201371],[-73.264377,43.4205735],[-73.2636904,43.4209475],[-73.2636474,43.4211657],[-73.2642912,43.4225372],[-73.2654928,43.4231606],[-73.2668661,43.4237528],[-73.267939,43.4242827],[-73.2686256,43.4249372],[-73.2691406,43.4255606],[-73.2696556,43.4258099],[-73.2700847,43.4258411],[-73.2706426,43.4256853],[-73.271458,43.4251554]]},"properties":{"aeroway":"aerodrome","faa":"01NK","gnis:feature_id":"978046","name":"Granville Airport","wikidata":"Q3913327","wikipedia":"en:Granville Airport"}},
{"type":"Feature","geometry":{"type":"LineString","coordinates":[[-73.610739,43.3355761],[-73.6106103,43.3354357],[-73.6096018,43.3353888],[-73.6096018,43.3350455],[-73.6090868,43.3347802],[-73.6078423,43.3347802],[-73.6073702,43.3354825],[-73.606705,43.3355917],[-73.6049455,43.3368715],[-73.6024349,43.3364813],[-73.6018127,43.3392125],[-73.6019629,43.3416782],[-73.6023062,43.3435509],[-73.6042803,43.3434104],[-73.6042985,43.3436812],[-73.6043093,43.3438424],[-73.6043949,43.3451201],[-73.6044007,43.3452054],[-73.604409,43.3453298],[-73.6051742,43.345299],[-73.6051848,43.3453799],[-73.6054052,43.3470573],[-73.6060875,43.3470023],[-73.6063576,43.3469806],[-73.6064852,43.3500611],[-73.6064946,43.3502876],[-73.6065062,43.351198],[-73.6065077,43.3513136],[-73.6065249,43.3518758],[-73.6065401,43.352469],[-73.6066585,43.3529504],[-73.6069312,43.353141],[-73.6081685,43.3529647],[-73.6096447,43.3526324],[-73.6110785,43.3521625],[-73.6121594,43.3517574],[-73.6129348,43.3513929],[-73.6141364,43.350902],[-73.613823,43.3501321],[-73.6140574,43.350028],[-73.6137716,43.3485637],[-73.6135233,43.3474726],[-73.6132019,43.3460598],[-73.6142041,43.3453228],[-73.6153832,43.3443765],[-73.6168919,43.3432136],[-73.6217927,43.3445716],[-73.6224689,43.3447589],[-73.6227669,43.3448415],[-73.6233417,43.3447111],[-73.6231365,43.3433309],[-73.6240238,43.3418259],[-73.6212047,43.3411654],[-73.6197298,43.3408199],[-73.6123934,43.3388938],[-73.6109322,43.3385102],[-73.610739,43.3355761]]},"properties":{"addr:state":"NY","aerodrome:type":"public","aeroway":"aerodrome","alt_name":"Warren County Airport","closest_town":"Glens Falls, New York","ele":"98","gnis:feature_id":"978037","iata":"GFL","icao":"KGFL","name":"Floyd Bennett Memorial Airport","name:en":"Floyd Bennett Memorial Airport","operator":"Warren County","source":"wikipedia","wikidata":"Q5462388","wikipedia":"en:Floyd Bennett Memorial Airport"}},
{"type":"Feature","geometry":{"type":"LineString","coordinates":[[-73.8156959,42.7498959],[-73.8157922,42.749889],[-73.8159024,42.7498657],[-73.8160116,42.7498167],[-73.8160961,42.7497572],[-73.8161568,42.7496769],[-73.8161933,42.7496014],[-73.8162044,42.7495173],[-73.8161524,42.7483843],[-73.8161308,42.7482937],[-73.8160837,42.7482126],[-73.8160101,42.7481411],[-73.8159115,42.7480774],[-73.8157757,42.7480355],[-73.8156198,42.748022],[-73.8145315,42.7479944],[-73.8142064,42.7481526],[-73.8140373,42.7482349],[-73.8132734,42.7482566],[-73.8132684,42.7481477],[-73.81325,42.7477441],[-73.8130484,42.7477484],[-73.8129808,42.7477498],[-73.8129689,42.7474511],[-73.8129996,42.7471966],[-73.813024,42.7470936],[-73.8132103,42.7467716],[-73.8133342,42.7463524],[-73.8134012,42.7462923],[-73.8133916,42.7462784],[-73.813343,42.7462081],[-73.813367,42.7459829],[-73.8135866,42.745979],[-73.8148637,42.7459479],[-73.8155255,42.7458118],[-73.815804,42.745694],[-73.8157611,42.7454306],[-73.8153236,42.7450635],[-73.8144412,42.7446963],[-73.8135414,42.7446334],[-73.8127434,42.7445697],[-73.8116059,42.7439427],[-73.8089846,42.7419654],[-73.8081007,42.7405794],[-73.8080128,42.7373989],[-73.8080013,42.737284],[-73.8079643,42.7371655],[-73.807912,42.7370576],[-73.8076667,42.7366916],[-73.8075504,42.7365357],[-73.8074133,42.7363642],[-73.8070377,42.7359622],[-73.8068845,42.735784],[-73.8067287,42.7355752],[-73.8066073,42.7353776],[-73.8064984,42.7351753],[-73.8064048,42.734969],[-73.8063239,42.7347603],[-73.8062003,42.7343923],[-73.8061551,42.734273],[-73.8061045,42.7341676],[-73.8060375,42.7340618],[-73.8059429,42.7339476],[-73.8058399,42.7338407],[-73.8057241,42.7337282],[-73.8055671,42.7335907],[-73.8054082,42.733469],[-73.805234,42.7333479],[-73.8050397,42.7332257],[-73.8048281,42.7331075],[-73.804615,42.7330021],[-73.8044059,42.7329101],[-73.804203,42.7328328],[-73.8039628,42.7327574],[-73.8037211,42.7326957],[-73.8023422,42.7323531],[-73.8019743,42.7322525],[-73.8016405,42.732132],[-73.801488,42.7322308],[-73.8012411,42.7338405],[-73.8011985,42.7341179],[-73.8003189,42.7340817],[-73.8003143,42.7343882],[-73.8007299,42.7377938],[-73.8001917,42.7378031],[-73.7996542,42.7385182],[-73.8000405,42.7389595],[-73.8008988,42.7391171],[-73.8012421,42.7391171],[-73.8015475,42.7392143],[-73.8016634,42.7415455],[-73.7987686,42.7416668],[-73.7957253,42.7417943],[-73.794276,42.741855],[-73.7942228,42.7419124],[-73.7947409,42.743479],[-73.7947612,42.7435404],[-73.794274,42.7436178],[-73.7944007,42.7439749],[-73.7944129,42.7440092],[-73.7944679,42.7439996],[-73.7944834,42.7440401],[-73.7944916,42.7440642],[-73.7945072,42.7441101],[-73.7946071,42.7443801],[-73.7946736,42.7444263],[-73.7947985,42.7447609],[-73.7936791,42.7448977],[-73.7937916,42.7452028],[-73.7974952,42.744727],[-73.7973909,42.7455738],[-73.79498,42.7458507],[-73.7950882,42.7461814],[-73.7941612,42.7462547],[-73.7942516,42.746548],[-73.7943806,42.7466408],[-73.7950033,42.7470138],[-73.7950607,42.7470463],[-73.7953109,42.747188],[-73.795601,42.7473481],[-73.7953462,42.7478214],[-73.794141,42.7480014],[-73.7938385,42.7480099],[-73.7934929,42.7479608],[-73.793271,42.7477139],[-73.7927663,42.7475495],[-73.7921439,42.7475648],[-73.7921087,42.747995],[-73.7916898,42.7479535],[-73.7917577,42.7475743],[-73.7885196,42.7476538],[-73.7892327,42.7473749],[-73.7887808,42.7468505],[-73.7879746,42.7471697],[-73.7876752,42.7468176],[-73.7871794,42.7470028],[-73.7874958,42.7473769],[-73.7867522,42.7477143],[-73.7866404,42.7476156],[-73.7861413,42.747803],[-73.785698,42.7471211],[-73.7837053,42.7478334],[-73.7840207,42.7482344],[-73.78418,42.748193],[-73.7846214,42.7486694],[-73.7823924,42.7484734],[-73.7813604,42.749967],[-73.7814497,42.7501668],[-73.7829567,42.7507291],[-73.7838269,42.7509761],[-73.7845335,42.7510763],[-73.7852127,42.7510801],[-73.7940746,42.7508689],[-73.7941382,42.7508987],[-73.8003901,42.7507509],[-73.8005466,42.7507574],[-73.8006959,42.7507773],[-73.8008552,42.7508163],[-73.8010137,42.7508679],[-73.8011627,42.7509413],[-73.8012992,42.7510376],[-73.8014273,42.7511614],[-73.8020961,42.7519558],[-73.8022329,42.7519743],[-73.8023787,42.7520021],[-73.8025091,42.7520515],[-73.8025638,42.7521222],[-73.8025847,42.7521918],[-73.8025787,42.7522699],[-73.8025327,42.7523561],[-73.8024712,42.7524471],[-73.8026465,42.7526556],[-73.8027336,42.7526418],[-73.802852,42.7527807],[-73.8027745,42.7528201],[-73.8028379,42.7528969],[-73.8026512,42.7529817],[-73.8027043,42.7530573],[-73.8027431,42.7531329],[-73.8027754,42.7532232],[-73.8027813,42.7533201],[-73.8027682,42.7534201],[-73.802738,42.7535206],[-73.8018529,42.7560766],[-73.8017989,42.7561613],[-73.8017354,42.7562171],[-73.8016462,42.7562608],[-73.8015553,42.7562845],[-73.8009644,42.7563118],[-73.800983,42.7567199],[-73.8006029,42.7567315],[-73.8006227,42.7570715],[-73.8005734,42.7570725],[-73.8006324,42.7583014],[-73.800521,42.7583037],[-73.800528,42.7588759],[-73.8005734,42.7596141],[-73.8012448,42.7596107],[-73.8012448,42.7596818],[-73.8012459,42.7597226],[-73.8016976,42.7596622],[-73.801987,42.7598111],[-73.8027185,42.7612115],[-73.802763,42.761316],[-73.8032556,42.7624724],[-73.8033312,42.7626192],[-73.8034122,42.7627414],[-73.8035036,42.7628562],[-73.8036017,42.7629585],[-73.803605,42.7631461],[-73.8037523,42.7631452],[-73.8042247,42.7634959],[-73.8045085,42.7635265],[-73.804514,42.7636521],[-73.8048636,42.7636541],[-73.8064299,42.7638766],[-73.806589,42.7639034],[-73.8066298,42.7639123],[-73.8079666,42.7641972],[-73.8085062,42.7630243],[-73.8098619,42.76328],[-73.8101968,42.7623666],[-73.8108082,42.7622047],[-73.8086556,42.7602084],[-73.8084185,42.7596968],[-73.8082887,42.759361],[-73.8082178,42.7591263],[-73.808677,42.7590313],[-73.8093207,42.7590073],[-73.8089896,42.7578954],[-73.8084769,42.7579548],[-73.8084024,42.7576804],[-73.8081095,42.7573811],[-73.8078257,42.7574232],[-73.8077466,42.7573812],[-73.8073791,42.7560114],[-73.807342,42.755873],[-73.8080976,42.7553694],[-73.8077619,42.7550775],[-73.8073663,42.7551255],[-73.807287,42.7551186],[-73.8072214,42.755093],[-73.807175,42.755063],[-73.8071756,42.7547518],[-73.8073744,42.754589],[-73.8079373,42.754686],[-73.8078577,42.7547378],[-73.808869,42.755522],[-73.8089228,42.7554749],[-73.8090085,42.7555337],[-73.8090687,42.7555749],[-73.8096329,42.7551309],[-73.8099256,42.7553314],[-73.8104481,42.7553255],[-73.8111055,42.7550247],[-73.8119284,42.7552947],[-73.8121618,42.7550468],[-73.8123904,42.754804],[-73.8125848,42.7538077],[-73.8122516,42.7525373],[-73.8124146,42.7522614],[-73.8124786,42.7522778],[-73.8125475,42.7522796],[-73.8126183,42.7522641],[-73.8126748,42.7522267],[-73.812712,42.7521756],[-73.8129093,42.752176],[-73.8129108,42.7522444],[-73.813017,42.7522428],[-73.813021,42.7522931],[-73.8138669,42.7523211],[-73.8140282,42.7522248],[-73.8139504,42.7510901],[-73.8139092,42.7504884],[-73.8140466,42.7503445],[-73.8140847,42.7502906],[-73.814097,42.7502194],[-73.8140864,42.7499747],[-73.8141523,42.7499326],[-73.8156959,42.7498959]]},"properties":{"addr:state":"NY","aeroway":"aerodrome","ele":"84","gnis:feature_id":"977879","iata":"ALB","icao":"KALB","name":"Albany International Airport","operator":"Albany County, New York","ref":"ALB","source":"wikipedia","type":"public","wikidata":"Q1430745","wikipedia":"en:Albany International Airport"}},
{"type":"Feature","geometry":{"type":"LineString","coordinates":[[-73.8699959,43.0443877],[-73.8705263,43.0439915],[-73.8703156,43.0427272],[-73.8689521,43.0428283],[-73.8681368,43.042891],[-73.8651093,43.0431805],[-73.8612488,43.0435156],[-73.860771,43.0435753],[-73.8584716,43.0437993],[-73.8565909,43.044134],[-73.8549403,43.0444906],[-73.8552212,43.0451598],[-73.8540368,43.0454773],[-73.8539976,43.0453996],[-73.8534965,43.0455336],[-73.8534347,43.0459825],[-73.853448,43.0480303],[-73.8535104,43.0504066],[-73.8536314,43.0552787],[-73.8510994,43.0578343],[-73.8536528,43.0594021],[-73.8550905,43.0588064],[-73.8550905,43.0586496],[-73.8551763,43.0583517],[-73.8553694,43.0581322],[-73.8557128,43.057897],[-73.8568929,43.0576775],[-73.8575581,43.0576305],[-73.8636058,43.0564866],[-73.8654331,43.056141],[-73.8689736,43.0559059],[-73.8717846,43.0555296],[-73.8717278,43.0526104],[-73.8717202,43.0522212],[-73.8716773,43.049979],[-73.8704542,43.0499946],[-73.8701812,43.0469039],[-73.870814,43.0462629],[-73.8706841,43.045268],[-73.86976,43.045328],[-73.8699959,43.0443877]]},"properties":{"addr:state":"NY","aeroway":"aerodrome","ele":"131","faa":"5B2","gnis:feature_id":"978279","name":"Saratoga County Airport","wikidata":"Q7423357","wikipedia":"en:Saratoga County Airport"}},
{"type":"Feature","geometry":{"type":"LineString","coordinates":[[-73.9416155,42.8475267],[-73.9422125,42.8475137],[-73.9424884,42.8488234],[-73.9423441,42.8490634],[-73.9419359,42.8491686],[-73.9398332,42.8491906],[-73.9395767,42.8495606],[-73.938683,42.850208],[-73.939316,42.8505702],[-73.9397387,42.8505651],[-73.9400064,42.8506839],[-73.941192,42.8506697],[-73.9412054,42.8510988],[-73.9399276,42.8511629],[-73.9392846,42.852123],[-73.9380909,42.8517641],[-73.9378705,42.8515821],[-73.9371632,42.8520292],[-73.9365439,42.8524613],[-73.9350741,42.8534602],[-73.9346779,42.8537292],[-73.9340971,42.8540774],[-73.9331175,42.8547135],[-73.9329439,42.8548426],[-73.9319729,42.8554557],[-73.931699,42.8554432],[-73.9315208,42.8555594],[-73.9325423,42.856262],[-73.9336473,42.8570363],[-73.932091,42.8582766],[-73.9318788,42.8584434],[-73.9333607,42.8593588],[-73.9334991,42.8594248],[-73.9331077,42.8598391],[-73.9332325,42.8599431],[-73.9341545,42.8604863],[-73.9336311,42.8609732],[-73.9332818,42.8613507],[-73.9330266,42.8617391],[-73.931765,42.861354],[-73.9315194,42.8614249],[-73.9312457,42.8617215],[-73.9306979,42.8620696],[-73.9303864,42.8623037],[-73.9296515,42.862811],[-73.9288216,42.8630649],[-73.9285267,42.8631772],[-73.9283223,42.8631566],[-73.927619,42.8630856],[-73.9267374,42.8623875],[-73.9256529,42.8640871],[-73.9254184,42.8639853],[-73.9249349,42.8648519],[-73.9250572,42.8649079],[-73.92332,42.867583],[-73.9217555,42.8674573],[-73.9193922,42.8674444],[-73.9193523,42.8669672],[-73.9196986,42.8665709],[-73.9193234,42.8664052],[-73.9191721,42.8660412],[-73.9181825,42.8658044],[-73.9182256,42.8654409],[-73.9194,42.8637169],[-73.9185123,42.8634126],[-73.9219179,42.8583847],[-73.9233145,42.8563177],[-73.9243445,42.8566637],[-73.9250311,42.855657],[-73.9263186,42.853675],[-73.9259323,42.8529829],[-73.9224562,42.8502771],[-73.9203442,42.8488907],[-73.921155,42.8483082],[-73.9219392,42.8477942],[-73.9228901,42.8472951],[-73.9236671,42.8469362],[-73.9286199,42.8449396],[-73.9304859,42.8441775],[-73.9327049,42.8433153],[-73.9342094,42.8438462],[-73.934594,42.8438425],[-73.9365852,42.8444695],[-73.9366631,42.8446805],[-73.9373361,42.8450193],[-73.9372945,42.8454557],[-73.9378678,42.8457194],[-73.9365367,42.8476445],[-73.9416155,42.8475267]]},"properties":{"addr:state":"NY","aeroway":"aerodrome","closest_town":"Schenectady, New York","comment":"boundary is approx","ele":"108","gnis:feature_id":"978283","iata":"SCH","icao":"KSCH","name":"Schenectady County Airport","name:en":"Schenectady County Airport","operator":"Schenectady County","source":"wikipedia","type":"public","website":"https://www.schenectadycounty.com/node/575","wikidata":"Q7431153","wikipedia":"en:Schenectady County Airport"}},
{"type":"Feature","geometry":{"type":"LineString","coordinates":[[-73.9203442,42.8488907],[-73.9196166,42.8493345],[-73.9191697,42.8498084],[-73.9182626,42.8503593],[-73.9178486,42.8504944],[-73.9179755,42.8506734],[-73.9178936,42.8509575],[-73.9180495,42.8515701],[-73.9187066,42.8523073],[-73.918971,42.8521191],[-73.9194838,42.8524542],[-73.919421,42.8527384],[-73.9195763,42.8528623],[-73.9194473,42.8540648],[-73.9195287,42.8541279],[-73.919101,42.856193],[-73.9191769,42.8562753],[-73.9194777,42.8563658],[-73.9197752,42.8565859],[-73.9198924,42.8566034],[-73.9205631,42.8572347],[-73.9219179,42.8583847],[-73.9233145,42.8563177],[-73.9243445,42.8566637],[-73.9250311,42.855657],[-73.9263186,42.853675],[-73.9259323,42.8529829],[-73.9224562,42.8502771],[-73.9203442,42.8488907]]},"properties":{"aeroway":"aerodrome","alt_name":"Stratton ANGB","landuse":"military","military":"airfield","name":"Stratton Air National Guard Base"}},
{"type":"Feature","geometry":{"type":"LineString","coordinates":[[-77.0529693,42.6231246],[-77.048785,42.6232983],[-77.0493858,42.6262823],[-77.0506304,42.6262508],[-77.0506518,42.6267718],[-77.0504158,42.6272454],[-77.0502656,42.6276717],[-77.0505016,42.6283032],[-77.050802,42.6285558],[-77.0516603,42.6421475],[-77.0465749,42.642258],[-77.0474546,42.6432208],[-77.0519178,42.6431735],[-77.0519822,42.6440732],[-77.0531195,42.6440416],[-77.0530551,42.6430946],[-77.0573466,42.6430314],[-77.0575146,42.6446089],[-77.061588,42.6444821],[-77.060931,42.6401839],[-77.0543855,42.6402692],[-77.0529693,42.6231246]]},"properties":{"aeroway":"aerodrome","icao":"KPEO","name":"Penn Yan Airport","wikidata":"Q7163354"}},
{"type":"Feature","geometry":{"type":"LineString","coordinates":[[-74.1448631,41.620838],[-74.1437729,41.6232865],[-74.1437312,41.6233804],[-74.1434868,41.6236703],[-74.1425617,41.6247678],[-74.1423257,41.6254535],[-74.1413601,41.6259067],[-74.1412313,41.6261994],[-74.1404803,41.628084],[-74.1403355,41.6280639],[-74.1400619,41.6287857],[-74.1401209,41.6290383],[-74.1401155,41.6294232],[-74.1400029,41.6294513],[-74.1395362,41.6288699],[-74.1398366,41.6279717],[-74.1404857,41.6258786],[-74.140534,41.6244511],[-74.140652,41.623244],[-74.1404267,41.6220851],[-74.1405125,41.6215157],[-74.1404213,41.6206455],[-74.1402497,41.6197833],[-74.1410168,41.6199517],[-74.1411777,41.6194464],[-74.1437473,41.620056],[-74.1435488,41.6205212],[-74.1448631,41.620838]]},"properties":{"addr:state":"NY","aeroway":"aerodrome","ele":"150","gnis:feature_id":"978349","loc_ref":"N45","name":"Kobelt Airport","note":"airport information from http://www.airport-data.com/airport/N45/","operator":"Wallkill Airpark, Inc","ref":"N45","source":"Yahoo","wikidata":"Q6424365","wikipedia":"en:Kobelt Airport"}},
{"type":"Feature","geometry":{"type":"LineString","coordinates":[[-78.4889444,43.0181493],[-78.4882517,43.0180153],[-78.4871574,43.0182584],[-78.4860845,43.0182192],[-78.4853335,43.0182741],[-78.4852905,43.0184702],[-78.4846468,43.0187134],[-78.484443,43.0192703],[-78.484046,43.0194194],[-78.4838958,43.0197096],[-78.4836598,43.0197096],[-78.4827585,43.0202744],[-78.4824796,43.0198508],[-78.4796901,43.0198743],[-78.4797652,43.020494],[-78.4796686,43.0210588],[-78.4778555,43.0216471],[-78.476289,43.0220157],[-78.4762139,43.0239531],[-78.4764714,43.0241257],[-78.4772225,43.0243453],[-78.4776409,43.0240551],[-78.4806235,43.0228001],[-78.4818573,43.0228785],[-78.4818359,43.0233099],[-78.4846897,43.023106],[-78.4855158,43.0225334],[-78.4866209,43.0215686],[-78.4865673,43.0208235],[-78.4865673,43.0205097],[-78.4868677,43.0201018],[-78.4892373,43.0193025],[-78.4894253,43.018618],[-78.4889444,43.0181493]]},"properties":{"addr:state":"NY","aeroway":"aerodrome","ele":"253","faa":"9G3","gnis:feature_id":"977878","name":"Akron Airport","operator":"Christian Airmen Inc","website":"https://www.christianairmen.com/","wikidata":"Q4701668","wikipedia":"en:Akron Airport"}},
{"type":"Feature","geometry":{"type":"LineString","coordinates":[[-78.6127387,42.923631],[-78.612714,42.9231043],[-78.6189027,42.9219865],[-78.6187396,42.9204478],[-78.6029559,42.9232137],[-78.6030176,42.9239059],[-78.6080577,42.9231043],[-78.6086156,42.924707],[-78.6086517,42.9257325],[-78.6113465,42.9252515],[-78.6113513,42.9238629],[-78.6127387,42.923631]]},"properties":{"aeroway":"aerodrome","icao":"KBQR","name":"Buffalo Lancaster Regional Airport","ref":"KBQR"}},
{"type":"Feature","geometry":{"type":"LineString","coordinates":[[-78.720871,42.8596398],[-78.7208818,42.8590814],[-78.7204955,42.8589084],[-78.7204204,42.8580512],[-78.717749,42.8581691],[-78.7177597,42.8594117],[-78.716483,42.8594668],[-78.7160216,42.8596949],[-78.7159787,42.8605521],[-78.7156315,42.8607772],[-78.7132858,42.8622979],[-78.7121807,42.8640123],[-78.7130497,42.8647594],[-78.720002,42.8603791],[-78.7203786,42.8600587],[-78.720871,42.8596398]]},"properties":{"aeroway":"aerodrome","name":"Buffalo Airfield"}},
{"type":"Feature","geometry":{"type":"LineString","coordinates":[[-78.1851915,43.0321493],[-78.1840972,43.0327218],[-78.183668,43.0330198],[-78.1828204,43.0334511],[-78.1781319,43.0334825],[-78.1781319,43.0332158],[-78.1607834,43.0330668],[-78.160762,43.0334825],[-78.152372,43.0336629],[-78.1528226,43.0332707],[-78.1532089,43.0327139],[-78.1536916,43.0316474],[-78.1545285,43.0292632],[-78.1851915,43.0292946],[-78.1851915,43.0321493]]},"properties":{"addr:city":"Batavia","addr:postcode":"14020","addr:state":"NY","addr:street":"East Saile Drive","aeroway":"aerodrome","closest_town":"Batavia, New York","ele":"277","gnis:feature_id":"977904","icao":"KGVQ","name":"Genesee County Airport","operator":"Genesee County","type":"public","website":"https://www.co.genesee.ny.us/dpt/airport/","wikidata":"Q3275011","wikipedia":"en:Genesee County Airport"}},
{"type":"Feature","geometry":{"type":"LineString","coordinates":[[-78.7363315,42.9308117],[-78.7391925,42.9302382],[-78.7432266,42.9294463],[-78.7433461,42.9294524],[-78.7434547,42.9294813],[-78.743556,42.9295245],[-78.7436458,42.9295874],[-78.743723,42.9296571],[-78.7437885,42.9297968],[-78.7437977,42.9300749],[-78.7437528,42.9300749],[-78.7437411,42.9309331],[-78.7438056,42.9331489],[-78.7426655,42.9331689],[-78.7425849,42.9331766],[-78.742408,42.9333908],[-78.7423544,42.9334929],[-78.7418327,42.9345691],[-78.7423019,42.9345542],[-78.7423101,42.9348617],[-78.7425032,42.9348558],[-78.7424898,42.935223],[-78.7423114,42.9352289],[-78.7423235,42.935441],[-78.7418769,42.9354528],[-78.7418783,42.935548],[-78.7418724,42.9355485],[-78.7413497,42.9355535],[-78.7413531,42.9357406],[-78.7413559,42.9359265],[-78.7413003,42.9359962],[-78.7413016,42.9362335],[-78.7422659,42.9362213],[-78.7427097,42.9362145],[-78.7427109,42.9366347],[-78.7397874,42.936673],[-78.7398136,42.9373347],[-78.7398458,42.9373338],[-78.7398539,42.937554],[-78.7429109,42.9374934],[-78.742929,42.9376727],[-78.7422999,42.9376946],[-78.7423128,42.9380006],[-78.7423956,42.9379998],[-78.7423988,42.9381037],[-78.7423078,42.9381734],[-78.7423137,42.9383674],[-78.7424086,42.9384338],[-78.7424127,42.9385558],[-78.7423215,42.9385573],[-78.7423235,42.9386761],[-78.7420244,42.9386839],[-78.7421016,42.9408948],[-78.7420422,42.9409033],[-78.7420553,42.9412056],[-78.7420201,42.9412059],[-78.7420284,42.9414239],[-78.7402438,42.9414494],[-78.7402448,42.94148],[-78.7394493,42.9414887],[-78.7394512,42.9415213],[-78.7395253,42.9415203],[-78.7395567,42.9431041],[-78.7393168,42.9431088],[-78.7393282,42.943498],[-78.7396387,42.9440532],[-78.7396426,42.9441462],[-78.7397578,42.9441636],[-78.7399222,42.9441837],[-78.7399233,42.9442321],[-78.7410439,42.9442188],[-78.7410428,42.9443025],[-78.7414169,42.9446569],[-78.7443788,42.9462952],[-78.7443873,42.9464994],[-78.7444698,42.9490139],[-78.7431596,42.9490095],[-78.7431609,42.9491008],[-78.7399989,42.9490946],[-78.7395555,42.9490983],[-78.7365461,42.9490925],[-78.7356601,42.9485942],[-78.7339157,42.9476499],[-78.7337435,42.9478772],[-78.7319124,42.9467665],[-78.7316839,42.9466311],[-78.7316517,42.946664],[-78.7295615,42.945456],[-78.7281614,42.945079],[-78.727633,42.9449415],[-78.7271047,42.9449577],[-78.7268498,42.9456032],[-78.7265964,42.9455428],[-78.7265503,42.9455318],[-78.7264957,42.9455188],[-78.7264179,42.9456974],[-78.7256401,42.945507],[-78.7247036,42.9451459],[-78.7245753,42.9452695],[-78.7246196,42.9454482],[-78.7245403,42.9457425],[-78.7242387,42.9457437],[-78.7242025,42.9457751],[-78.7241274,42.9457751],[-78.7241099,42.9459977],[-78.7241837,42.9460038],[-78.7242749,42.9460843],[-78.7245337,42.9460518],[-78.7245507,42.9470611],[-78.7245458,42.9472219],[-78.724484,42.9472693],[-78.7226857,42.9486483],[-78.7204634,42.9503523],[-78.7127275,42.9503435],[-78.71455,42.948963],[-78.7149863,42.9486325],[-78.7190879,42.9454992],[-78.7200248,42.9447834],[-78.7208347,42.9449442],[-78.7209363,42.9449606],[-78.7211607,42.944809],[-78.7225049,42.9439013],[-78.7221198,42.9436786],[-78.7221008,42.9434969],[-78.7240153,42.9419765],[-78.7223116,42.9409636],[-78.7212794,42.9406372],[-78.7208344,42.9410738],[-78.7201404,42.9407011],[-78.7199401,42.9405118],[-78.7189143,42.9398914],[-78.7185284,42.9396719],[-78.7179536,42.9393508],[-78.71784,42.9392703],[-78.7179017,42.9392303],[-78.7178222,42.9391837],[-78.7177409,42.9391846],[-78.7177109,42.93698],[-78.7176788,42.9361776],[-78.7176741,42.9345901],[-78.7184571,42.9343932],[-78.7210683,42.9338703],[-78.7222875,42.9336082],[-78.7237359,42.9333097],[-78.7269009,42.932642],[-78.7297333,42.9321078],[-78.7328232,42.931503],[-78.7363315,42.9308117]]},"properties":{"addr:state":"NY","aerodrome":"international","aerodrome:type":"public","aeroway":"aerodrome","ele":"216","faa":"BUF","iata":"BUF","icao":"KBUF","name":"Buffalo-Niagara International Airport","name:de":"Internationaler Flughafen Buffalo-Niagara","name:en":"Buffalo-Niagara International Airport","operator":"Niagara Frontier Transportation Authority","ref":"BUF","wikidata":"Q597986","wikipedia":"en:Buffalo Niagara International Airport"}},
{"type":"Feature","geometry":{"type":"LineString","coordinates":[[-73.9565547,44.2606378],[-73.954983,44.2609528],[-73.9549669,44.2610373],[-73.9550956,44.2612986],[-73.9561846,44.261798],[-73.9564045,44.2620516],[-73.9566888,44.2623781],[-73.9567747,44.2626778],[-73.9571019,44.2629121],[-73.9572414,44.2629044],[-73.9574238,44.2629697],[-73.9577671,44.2634269],[-73.9579709,44.2636689],[-73.9583518,44.2638072],[-73.9586522,44.263765],[-73.9587649,44.2638072],[-73.9590867,44.2641798],[-73.9591243,44.2643066],[-73.9597519,44.2646908],[-73.9601274,44.2649021],[-73.9606907,44.2649021],[-73.9608409,44.2648291],[-73.960975,44.2647945],[-73.9610608,44.2647983],[-73.9611896,44.2648905],[-73.9612754,44.2649943],[-73.965111,44.2669265],[-73.9651915,44.2670149],[-73.9652344,44.2671493],[-73.9651861,44.2672953],[-73.9650198,44.2674643],[-73.9660176,44.26786],[-73.9686515,44.2693043],[-73.9689144,44.2691353],[-73.9690646,44.2686552],[-73.9692952,44.2686091],[-73.9696868,44.2681404],[-73.9696707,44.2680329],[-73.9689197,44.2675949],[-73.9689305,44.2675104],[-73.9690216,44.2673683],[-73.9689841,44.2671762],[-73.9683243,44.2661928],[-73.9679112,44.2661314],[-73.9677395,44.2657165],[-73.967997,44.265655],[-73.9677074,44.2648137],[-73.9679112,44.2643911],[-73.9681472,44.2639109],[-73.9692148,44.263765],[-73.9690377,44.263423],[-73.9620855,44.2640684],[-73.9583518,44.2619978],[-73.9580943,44.2619978],[-73.9579388,44.2619401],[-73.9575847,44.2619363],[-73.9568444,44.2614983],[-73.9565547,44.2606378]]},"properties":{"addr:state":"NY","aeroway":"aerodrome","closest_town":"Lake Placid, NY","comment":"not exact","ele":"532","iata":"LKP","icao":"KLKP","name":"Lake Placid Airport","name:en":"Lake Placid Airport","operator":"North Elba Park District","ref":"LKP","type":"public","wikidata":"Q6477376","wikipedia":"en:Lake Placid Airport"}},